code,name_th,name_en,latitude,longitude,district_id,zip_code
100101,พระบรมมหาราชวัง,Phra Borom Maha Ratchawang,13.751,100.492,1001,10200
100102,วังบูรพาภิรมย์,Wang Burapha Phirom,13.744,100.499,1001,10200
100103,วัดราชบพิธ,Wat Ratchabophit,13.750,100.499,1001,10200
100104,สำราญราษฎร์,Samran Rat,13.751,100.503,1001,10200
100105,ศาลเจ้าพ่อเสือ,San Chao Pho Suea,13.754,100.497,1001,10200
100106,เสาชิงช้า,Sao Chingcha,13.753,100.500,1001,10200
100107,บวรนิเวศ,Bowon Niwet,13.757,100.501,1001,10200
100108,ตลาดยอด,Talat Yot,13.760,100.498,1001,10200
100109,ชนะสงคราม,Chana Songkhram,13.762,100.495,1001,10200
100110,บ้านพานถม,Ban Phan Thom,13.762,100.503,1001,10200
100111,บางขุนพรหม,Bang Khun Phrom,13.765,100.505,1001,10200
100112,วัดสามพระยา,Wat Sam Phraya,13.768,100.499,1001,10200
100201,ดุสิต,Dusit,13.772,100.513,1002,10300
100202,วชิรพยาบาล,Wachiraphayaban,13.778,100.505,1002,10300
100203,สวนจิตรลดา,Suan Chit Lada,13.767,100.520,1002,10300
100204,สี่แยกมหานาค,Si Yaek Maha Nak,13.758,100.517,1002,10300
100206,ถนนนครไชยศรี,Thanon Nakhon Chai Si,13.789,100.522,1002,10300
100301,กระทุ่มราย,Krathum Rai,13.823,100.897,1003,10530
100302,หนองจอก,Nong Chok,13.869,100.885,1003,10530
100303,คลองสิบ,Khlong Sip,13.914,100.820,1003,10530
100304,คลองสิบสอง,Khlong Sip Song,13.914,100.880,1003,10530
100305,โคกแฝด,Khok Faet,13.840,100.836,1003,10530
100306,คู้ฝั่งเหนือ,Khu Fang Nuea,13.872,100.810,1003,10530
100307,ลำผักชี,Lam Phak Chi,13.797,100.844,1003,10530
100308,ลำต้อยติ่ง,Lam Toiting,13.781,100.877,1003,10530
100401,มหาพฤฒาราม,Maha Phruettharam,13.734,100.520,1004,10500
100402,สีลม,Si Lom,13.730,100.525,1004,10500
100403,สุริยวงศ์,Suriyawong,13.724,100.530,1004,10500
100404,บางรัก,Bang Rak,13.727,100.527,1004,10500
100405,สี่พระยา,Si Phraya,13.725,100.514,1004,10500
100502,อนุสาวรีย์,Anusawari,13.868,100.606,1005,10220
100508,ท่าแร้ง,Tha Raeng,13.866,100.650,1005,10220
100601,คลองจั่น,Khlong Chan,13.786,100.635,1006,10240
100608,หัวหมาก,Hua Mak,13.756,100.660,1006,10240
100701,รองเมือง,Rong Mueang,13.744,100.520,1007,10330
100702,วังใหม่,Wang Mai,13.742,100.526,1007,10330
100703,ปทุมวัน,Pathum Wan,13.740,100.535,1007,10330
100704,ลุมพินี,Lumphini,13.736,100.546,1007,10330
100801,ป้อมปราบ,Pom Prap,13.743,100.514,1008,10100
100802,วัดเทพศิรินทร์,Wat Thep Sirin,13.749,100.512,1008,10100
100803,คลองมหานาค,Khlong Maha Nak,13.753,100.513,1008,10100
100804,บ้านบาตร,Ban Bat,13.752,100.507,1008,10100
100805,วัดโสมนัส,Wat Sommanat,13.759,100.511,1008,10100
100905,บางจาก,Bang Chak,13.692,100.626,1009,10260
101001,มีนบุรี,Min Buri,13.804,100.723,1010,10510
101002,แสนแสบ,Saen Saep,13.812,100.774,1010,10510
101101,ลาดกระบัง,Lat Krabang,13.723,100.771,1011,10520
101102,คลองสองต้นนุ่น,Khlong Song Ton Nun,13.753,100.723,1011,10520
101103,คลองสามประเวศ,Khlong Sam Prawet,13.753,100.754,1011,10520
101104,ลำปลาทิว,Lam Pla Thio,13.765,100.817,1011,10520
101105,ทับยาว,Thap Yao,13.728,100.815,1011,10520
101106,ขุมทอง,Khum Thong,13.736,100.855,1011,10520
101203,ช่องนนทรี,Chong Nonsi,13.682,100.533,1012,10120
101204,บางโพงพาง,Bang Phongphang,13.697,100.544,1012,10120
101301,จักรวรรดิ,Chakkrawat,13.741,100.504,1013,10100
101302,สัมพันธวงศ์,Samphanthawong,13.739,100.511,1013,10100
101303,ตลาดน้อย,Talat Noi,13.734,100.513,1013,10100
101401,สามเสนใน,Samsen Nai,13.782,100.545,1014,10400
101501,วัดกัลยาณ์,Wat Kanlaya,13.737,100.493,1015,10600
101502,หิรัญรูจี,Hiran Ruchi,13.731,100.490,1015,10600
101503,บางยี่เรือ,Bang Yi Ruea,13.720,100.482,1015,10600
101504,บุคคโล,Bukkhalo,13.707,100.486,1015,10600
101505,ตลาดพลู,Talat Phlu,13.715,100.473,1015,10600
101601,วัดอรุณ,Wat Arun,13.743,100.486,1016,10600
101602,วัดท่าพระ,Wat Tha Phra,13.733,100.475,1016,10600
101701,ห้วยขวาง,Huai Khwang,13.769,100.577,1017,10310
101702,บางกะปิ,Bang Kapi,13.752,100.586,1017,10310
101704,สามเสนนอก,Samsen Nok,13.796,100.579,1017,10310
101801,สมเด็จเจ้าพระยา,Somdet Chao Phraya,13.731,100.497,1018,10600
101802,คลองสาน,Khlong San,13.735,100.504,1018,10600
101803,บางลำภูล่าง,Bang Lamphu Lang,13.715,100.501,1018,10600
101804,คลองต้นไทร,Khlong Ton Sai,13.725,100.508,1018,10600
101901,คลองชักพระ,Khlong Chak Phra,13.760,100.456,1019,10170
101902,ตลิ่งชัน,Taling Chan,13.789,100.459,1019,10170
101903,ฉิมพลี,Chimphli,13.786,100.432,1019,10170
101904,บางพรม,Bang Phrom,13.752,100.442,1019,10170
101905,บางระมาด,Bang Ramat,13.767,100.431,1019,10170
101907,บางเชือกหนัง,Bang Chueak Nang,13.751,100.419,1019,10170
102004,ศิริราช,Siri Rat,13.759,100.481,1020,10700
102005,บ้านช่างหล่อ,Ban Chang Lo,13.752,100.477,1020,10700
102006,บางขุนนนท์,Bang Khun Non,13.774,100.466,1020,10700
102007,บางขุนศรี,Bang Khun Si,13.760,100.463,1020,10700
102009,อรุณอมรินทร์,Arun Ammarin,13.772,100.477,1020,10700
102105,ท่าข้าม,Tha Kham,13.555,100.434,1021,10150
102107,แสมดำ,Samae Dam,13.605,100.395,1021,10150
102201,บางหว้า,Bang Wa,13.714,100.443,1022,10160
102202,บางด้วน,Bang Duan,13.723,100.437,1022,10160
102206,บางจาก,Bang Chak,13.727,100.450,1022,10160
102207,บางแวก,Bang Waek,13.736,100.445,1022,10160
102208,คลองขวาง,Khlong Khwang,13.738,100.423,1022,10160
102209,ปากคลองภาษีเจริญ,Pak Khlong Phasi Charoen,13.722,100.464,1022,10160
102210,คูหาสวรรค์,Khuha Sawan,13.727,100.457,1022,10160
102302,หนองแขม,Nong Khaem,13.680,100.358,1023,10160
102303,หนองค้างพลู,Nong Khang Phlu,13.714,100.351,1023,10160
102401,ราษฎร์บูรณะ,Rat Burana,13.670,100.510,1024,10140
102402,บางปะกอก,Bang Pakok,13.675,100.491,1024,10140
102501,บางพลัด,Bang Phlat,13.791,100.487,1025,10700
102502,บางอ้อ,Bang O,13.802,100.512,1025,10700
102503,บางบำหรุ,Bang Bamru,13.781,100.482,1025,10700
102504,บางยี่ขัน,Bang Yi Khan,13.774,100.492,1025,10700
102601,ดินแดง,Din Daeng,13.778,100.567,1026,10400
102701,คลองกุ่ม,Khlong Kum,13.808,100.650,1027,10240
102801,ทุ่งวัดดอน,Thung Wat Don,13.710,100.532,1028,10120
102802,ยานนาวา,Yan Nawa,13.714,100.514,1028,10120
102803,ทุ่งมหาเมฆ,Thung Maha Mek,13.718,100.541,1028,10120
102901,บางซื่อ,Bang Sue,13.820,100.529,1029,10800
103001,ลาดยาว,Lat Yao,13.826,100.565,1030,10900
103101,บางคอแหลม,Bang Kho Laem,13.696,100.494,1031,10120
103102,วัดพระยาไกร,Wat Phraya Krai,13.706,100.508,1031,10120
103103,บางโคล่,Bang Khlo,13.694,100.516,1031,10120
103201,ประเวศ,Prawet,13.719,100.664,1032,10250
103202,หนองบอน,Nong Bon,13.687,100.656,1032,10250
103203,ดอกไม้,Dokmai,13.680,100.689,1032,10250
103301,คลองเตย,Khlong Toei,13.710,100.570,1033,10110
103302,คลองตัน,Khlong Tan,13.723,100.571,1033,10110
103303,พระโขนง,Phra Khanong,13.707,100.595,1033,10110
103401,สวนหลวง,Suan Luang,13.726,100.628,1034,10250
103501,บางขุนเทียน,Bang Khun Thian,13.694,100.450,1035,10150
103502,บางค้อ,Bang Kho,13.702,100.476,1035,10150
103503,บางมด,Bang Mot,13.672,100.468,1035,10150
103504,จอมทอง,Chom Thong,13.693,100.468,1035,10150
103602,สีกัน,Si Kan,13.925,100.593,1036,10210
103701,ทุ่งพญาไท,Thung Phaya Thai,13.763,100.530,1037,10400
103702,ถนนพญาไท,Thanon Phaya Thai,13.757,100.538,1037,10400
103703,ถนนเพชรบุรี,Thanon Phetchaburi,13.752,100.559,1037,10400
103704,มักกะสัน,Makkasan,13.752,100.528,1037,10400
103801,ลาดพร้าว,Lat Phrao,13.811,100.612,1038,10230
103802,จรเข้บัว,Chorakhe Bua,13.840,100.600,1038,10230
103901,คลองเตยเหนือ,Khlong Toei Nuea,13.743,100.560,1039,10110
103902,คลองตันเหนือ,Khlong Tan Nuea,13.736,100.576,1039,10110
103903,พระโขนงเหนือ,Phra Khanong Nuea,13.719,100.596,1039,10110
104001,บางแค,Bang Khae,13.698,100.409,1040,10160
104002,บางแคเหนือ,Bang Khae Nuea,13.720,100.400,1040,10160
104003,บางไผ่,Bang Phai,13.741,100.385,1040,10160
104004,หลักสอง,Lak Song,13.683,100.396,1040,10160
104101,ทุ่งสองห้อง,Thung Song Hong,13.883,100.564,1041,10210
104102,ตลาดบางเขน,Talat Bang Khen,13.871,100.580,1041,10210
104201,สายไหม,Sai Mai,13.921,100.654,1042,10220
104202,ออเงิน,O Ngoen,13.896,100.672,1042,10220
104203,คลองถนน,Khlong Thanon,13.898,100.630,1042,10220
104301,คันนายาว,Khan Na Yao,13.821,100.677,1043,10230
104401,สะพานสูง,Sapan Sung,13.761,100.688,1044,10240
104501,วังทองหลาง,Wang Thonglang,13.779,100.609,1045,10310
104601,สามวาตะวันตก,Sam Wa Tawantok,13.889,100.708,1046,10510
104602,สามวาตะวันออก,Sam Wa Tawan-ok,13.896,100.760,1046,10510
104603,บางชัน,Bang Chan,13.839,100.700,1046,10510
104604,ทรายกองดิน,Sai Kong Din,13.854,100.745,1046,10510
104605,ทรายกองดินใต้,Sai Kong Din Tai,13.861,100.786,1046,10510
104701,บางนา,Bang Na,13.672,100.616,1047,10260
104801,ทวีวัฒนา,Thawi Watthana,13.758,100.348,1048,10170
104802,ศาลาธรรมสพน์,Sala Thammasop,13.783,100.390,1048,10170
104901,บางมด,Bang Mot,13.651,100.510,1049,10140
104902,ทุ่งครุ,Thung Khru,13.614,100.497,1049,10140
105001,บางบอน,Bang Bon,13.646,100.370,1050,10150
110101,เทศบาลนครสมุทรปราการ,Pak Nam,13.593,100.597,1101,10270
110102,สำโรงเหนือ,Samrong Nuea,13.649,100.617,1101,10270
110103,บางเมือง,Bang Mueang,13.601,100.622,1101,10270
110104,ท้ายบ้าน,Thai Ban,13.556,100.599,1101,10280
110105,ท้ายบ้านใหม่,Thai Ban,13.572,100.621,1101,10280
110108,บางปูใหม่,Bang Pu Mai,13.526,100.670,1101,10280
110110,แพรกษา,Phraek Sa,13.564,100.653,1101,10280
110111,บางโปรง,Bang Prong,13.623,100.565,1101,10270
110112,เทศบาลบางปู,Bang Pu,13.510,100.751,1101,10280
110113,บางด้วน,Bang Duan,13.622,100.581,1101,10270
110114,เทศบาลบางเมือง,Bang Mueang Mai,13.622,100.605,1101,10270
110115,เทพารักษ์,Thepharak,13.634,100.610,1101,10270
110117,แพรกษาใหม่,Phraek Sa Mai,13.559,100.691,1101,10280
110201,บางบ่อ,Bang Bo,13.611,100.862,1102,10560
110202,บ้านระกาศ,Ban Rakat,13.639,100.904,1102,10560
110203,บางพลีน้อย,Bang Phli Noi,13.574,100.900,1102,10560
110204,บางเพรียง,Bang Phriang,13.545,100.805,1102,10560
110205,คลองด่าน,Khlong Dan,13.511,100.835,1102,10550
110206,คลองสวน,Khlong Suan,13.659,100.925,1102,10560
110207,เปร็ง,Preng,13.672,100.881,1102,10560
110208,คลองนิยมยาตรา,Khlong Niyom Yattra,13.624,100.935,1102,10560
110301,บางพลีใหญ่,Bang Phli Yai,13.618,100.694,1103,10540
110302,บางแก้ว,Bang Kaeo,13.642,100.662,1103,10540
110303,บางปลา,Bang Pla,13.561,100.739,1103,10540
110304,บางโฉลง,Bang Chalong,13.623,100.755,1103,10540
110308,ราชาเทวะ,Racha Thewa,13.681,100.733,1103,10540
110309,หนองปรือ,Nong Prue,13.678,100.750,1103,10540
110401,เทศบาลเมืองพระประแดง,Talat,13.656,100.533,1104,10130
110402,ตลาด,Bang Phueng,13.671,100.520,1104,10130
110403,บางจาก,Bang Chak,13.616,100.536,1104,10130
110404,บางครุ,Bang Khru,13.631,100.526,1104,10130
110405,บางหญ้าแพรก,Bang Ya Phraek,13.645,100.546,1104,10130
110406,บางหัวเสือ,Bang Hua Suea,13.625,100.549,1104,10130
110407,เทศบาลสำโรงใต้,Samrong Tai,13.641,100.573,1104,10130
110408,บางยอ,Bang Yo,13.679,100.558,1104,10130
110409,บางกะเจ้า,Bang Kachao,13.697,100.561,1104,10130
110410,บางน้ำผึ้ง,Bang Namphueng,13.679,100.578,1104,10130
110411,บางกระสอบ,Bang Krasop,13.666,100.566,1104,10130
110412,บางกอบัว,Bang Ko Bua,13.693,100.577,1104,10130
110413,ทรงคนอง,Song Khanong,13.665,100.545,1104,10130
110414,สำโรง,Samrong,13.659,100.584,1104,10130
110415,สำโรงกลาง,Samrong Klang,13.653,100.564,1104,10130
110501,นาเกลือ,Na Kluea,13.530,100.494,1105,10290
110502,บ้านคลองสวน,Ban Khlong Suan,13.571,100.476,1105,10290
110503,แหลมฟ้าผ่า,Laem Fa Pha,13.539,100.559,1105,10290
110504,ปากคลองบางปลากด,Pak Khlong Bang Pla Kot,13.606,100.567,1105,10290
110505,ในคลองบางปลากด,Nai Khlong Bang Pla Kot,13.588,100.541,1105,10290
110601,บางเสาธง,Bang Sao Thong,13.600,100.815,1106,10570
110602,ศรีษะจรเข้น้อย,Sisa Chorakhe Noi,13.689,100.799,1106,10570
110603,ศรีษะจรเข้ใหญ่,Sisa Chorakhe Yai,13.641,100.803,1106,10570
120101,สวนใหญ่,Suan Yai,13.842,100.494,1201,11000
120102,ตลาดขวัญ,Talat Khwan,13.850,100.509,1201,11000
120103,บางเขน,Bang Khen,13.835,100.516,1201,11000
120104,บางกระสอ,Bang Kraso,13.869,100.491,1201,11000
120105,ท่าทราย,Tha Sai,13.884,100.501,1201,11000
120106,บางไผ่,Bang Phai,13.823,100.492,1201,11000
120107,บางศรีเมือง,Bang Si Mueang,13.841,100.475,1201,11000
120108,บางกร่าง,Bang Krang,13.835,100.438,1201,11000
120109,ไทรม้า,Sai Ma,13.870,100.472,1201,11000
120110,บางรักน้อย,Bang Rak Noi,13.859,100.464,1201,11000
120201,วัดชลอ,Wat Chalo,13.802,100.476,1202,11130
120202,บางกรวย,Bang Kruai,13.809,100.499,1202,11130
120203,บางสีทอง,Bang Si Thong,13.818,100.479,1202,11130
120204,บางขนุน,Bang Khanun,13.811,100.453,1202,11130
120205,บางขุนกอง,Bang Khun Kong,13.821,100.444,1202,11130
120206,บางคูเวียง,Bang Khu Wiang,13.822,100.417,1202,11130
120207,มหาสวัสดิ์,Maha Sawat,13.806,100.434,1202,11130
120208,ปลายบาง,Plai Bang,13.814,100.402,1202,11130
120209,ศาลากลาง,Sala Klang,13.810,100.358,1202,11130
120301,บางม่วง,Bang Muang,13.838,100.406,1203,11140
120302,บางแม่นาง,Bang Mae Nang,13.868,100.381,1203,11140
120303,บางเลน,Bang Len,13.854,100.434,1203,11140
120304,เสาธงหิน,Sao Thong Hin,13.875,100.404,1203,11140
120305,บางใหญ่,Bang Yai,13.837,100.375,1203,11140
120306,บ้านใหม่,Ban Mai,13.861,100.333,1203,11140
120401,โสนลอย,Sano Loi,13.914,100.422,1204,11110
120402,บางบัวทอง,Bang Bua Thong,13.944,100.390,1204,11110
120403,บางรักใหญ่,Bang Rak Yai,13.878,100.438,1204,11110
120404,บางคูรัด,Bang Khu Rat,13.907,100.351,1204,11110
120405,ละหาร,Lahan,13.964,100.401,1204,11110
120406,ลำโพ,Lam Pho,13.970,100.416,1204,11110
120407,พิมลราช,Phimon Rat,13.934,100.366,1204,11110
120408,บางรักพัฒนา,Bang Rak Phatthana,13.894,100.410,1204,11110
120501,ไทรน้อย,Sai Noi,13.976,100.344,1205,11150
120502,ราษฎร์นิยม,Rat Niyom,14.088,100.329,1205,11150
120503,หนองเพรางาย,Nong Phrao Ngai,13.906,100.322,1205,11150
120504,ไทรใหญ่,Sai Yai,14.085,100.292,1205,11150
120505,ขุนศรี,Khun Si,14.005,100.287,1205,11150
120506,คลองขวาง,Khlong Khwang,14.004,100.306,1205,11150
120507,ทวีวัฒนา,Thawi Watthana,13.942,100.312,1205,11150
120601,ปากเกร็ด,Pak Kret,13.912,100.506,1206,11120
120602,บางตลาด,Bang Talat,13.896,100.521,1206,11120
120603,บ้านใหม่,Ban Mai,13.930,100.546,1206,11120
120604,บางพูด,Bang Phut,13.927,100.516,1206,11120
120605,บางตะไนย์,Bang Tanai,13.931,100.492,1206,11120
120606,คลองพระอุดม,Khlong Phra Udom,13.930,100.479,1206,11120
120607,ท่าอิฐ,Tha It,13.894,100.480,1206,11120
120608,เกาะเกร็ด,Ko Kret,13.910,100.472,1206,11120
120609,อ้อมเกร็ด,Om Kret,13.909,100.453,1206,11120
120610,คลองข่อย,Khlong Khoi,13.959,100.450,1206,11120
120611,บางพลับ,Bang Phlap,13.929,100.458,1206,11120
120612,คลองเกลือ,Khlong Kluea,13.902,100.550,1206,11120
130101,บางปรอก,Bang Parok,14.012,100.528,1301,12000
130102,บ้านใหม่,Ban Mai,13.963,100.553,1301,12000
130103,บ้านกลาง,Ban Klang,14.001,100.558,1301,12000
130104,บ้านฉาง,Ban Chang,14.029,100.507,1301,12000
130105,บ้านกระแชง,Ban Krachaeng,14.031,100.552,1301,12000
130106,บางขะแยง,Bang Khayaeng,13.967,100.523,1301,12000
130107,บางคูวัด,Bang Khu Wat,13.963,100.495,1301,12000
130108,บางหลวง,Bang Luang,14.007,100.509,1301,12000
130109,บางเดื่อ,Bang Duea,13.990,100.487,1301,12000
130110,บางพูด,Bang Phut,14.035,100.572,1301,12000
130111,บางพูน,Bang Phun,13.988,100.594,1301,12000
130112,บางกะดี,Bang Kadi,13.983,100.537,1301,12000
130113,สวนพริกไทย,Suan Phrikthai,14.018,100.568,1301,12000
130114,หลักหก,Lak Hok,13.963,100.590,1301,12000
130201,คลองหนึ่ง,Khlong Nueng,14.066,100.607,1302,12120
130202,คลองสอง,Khlong Song,14.079,100.642,1302,12120
130203,คลองสาม,Khlong Sam,14.087,100.664,1302,12120
130204,คลองสี่,Khlong Si,14.097,100.687,1302,12120
130205,คลองห้า,Khlong Ha,14.106,100.710,1302,12120
130206,คลองหก,Khlong Hok,14.117,100.733,1302,12120
130207,คลองเจ็ด,Khlong Chet,14.125,100.750,1302,12120
130301,ประชาธิปัตย์,Prachathipat,13.987,100.632,1303,12130
130302,บึงยี่โถ,Bueng Yitho,13.999,100.687,1303,12130
130303,รังสิต,Rangsit,14.018,100.731,1303,12110
130304,ลำผักกูด,Lam Phak Kut,14.036,100.779,1303,12110
130305,บึงสนั่น,Bueng Sanan,14.052,100.824,1303,12110
130306,บึงน้ำรักษ์,Bueng Nam Rak,14.071,100.880,1303,12110
130401,บึงบา,Bueng Ba,14.112,100.824,1304,12170
130402,บึงบอน,Bueng Bon,14.087,100.778,1304,12170
130403,บึงกาสาม,Bueng Ka Sam,14.200,100.824,1304,12170
130404,บึงชำอ้อ,Bueng Cham O,14.172,100.778,1304,12170
130405,หนองสามวัง,Nong Sam Wang,14.130,100.881,1304,12170
130406,ศาลาครุ,Sala Khru,14.244,100.928,1304,12170
130407,นพรัตน์,Noppharat,14.223,100.866,1304,12170
130501,ระแหง,Rahaeng,14.059,100.396,1305,12140
130502,ลาดหลุมแก้ว,Lat Lum Kaeo,14.006,100.410,1305,12140
130503,คูบางหลวง,Khu Bang Luang,14.047,100.467,1305,12140
130504,คูขวาง,Khu Khwang,14.068,100.437,1305,12140
130505,คลองพระอุดม,Khlong Phra Udom,13.990,100.449,1305,12140
130506,บ่อเงิน,Bo Ngoen,14.102,100.383,1305,12140
130507,หน้าไม้,Na Mai,14.034,100.359,1305,12140
130601,คูคต,Khu Khot,13.955,100.641,1306,12130
130602,ลาดสวาย,Lat Sawai,13.958,100.685,1306,12150
130603,บึงคำพร้อย,Bueng Kham Phroi,13.961,100.731,1306,12150
130604,ลำลูกกา,Lam Luk Ka,13.972,100.774,1306,12150
130605,บึงทองหลาง,Bueng Thonglang,13.984,100.820,1306,12150
130606,ลำไทร,Lam Sai,13.973,100.861,1306,12150
130607,บึงคอไห,Bueng Kho Hai,14.029,100.862,1306,12150
130608,พืชอุดม,Phuet Udom,13.975,100.896,1306,12150
130701,บางเตย,Bang Toei,14.062,100.504,1307,12160
130702,คลองควาย,Khlong Khwai,14.097,100.478,1307,12160
130703,สามโคก,Sam Khok,14.052,100.529,1307,12160
130704,กระแชง,Krachaeng,14.043,100.544,1307,12160
130705,บางโพธิ์เหนือ,Bang Pho Nuea,14.042,100.515,1307,12160
130706,เชียงรากใหญ่,Chiang Rak Yai,14.057,100.574,1307,12160
130707,บ้านปทุม,Ban Pathum,14.067,100.546,1307,12160
130708,บ้านงิ้ว,Ban Ngio,14.084,100.539,1307,12160
130709,เชียงรากน้อย,Chiang Rak Noi,14.105,100.567,1307,12160
130710,บางกระบือ,Bang Krabue,14.103,100.538,1307,12160
130711,ท้ายเกาะ,Thai Ko,14.105,100.496,1307,12160
140101,ประตูชัย,Pratu Chai,14.349,100.551,1401,13000
140102,กะมัง,Kamang,14.341,100.581,1401,13000
140103,หอรัตนไชย,Ho Rattanachai,14.354,100.578,1401,13000
140104,หัวรอ,Hua Ro,14.368,100.578,1401,13000
140105,ท่าวาสุกรี,Tha Wasukri,14.361,100.552,1401,13000
140106,ไผ่ลิง,Phai Ling,14.356,100.589,1401,13000
140107,ปากกราน,Pak Kran,14.310,100.532,1401,13000
140108,ภูเขาทอง,Phukhao Thong,14.365,100.542,1401,13000
140109,สำเภาล่ม,Samphao Lom,14.340,100.570,1401,13000
140110,สวนพริก,Suan Phrik,14.391,100.558,1401,13000
140111,คลองตะเคียน,Khlong Takhian,14.331,100.554,1401,13000
140112,วัดตูม,Wat Tum,14.390,100.539,1401,13000
140113,หันตรา,Hantra,14.371,100.600,1401,13000
140114,ลุมพลี,Lumphli,14.376,100.548,1401,13000
140115,บ้านใหม่,Ban Mai,14.390,100.521,1401,13000
140116,บ้านเกาะ,Ban Ko,14.389,100.582,1401,13000
140117,คลองสวนพลู,Khlong Suan Phlu,14.334,100.595,1401,13000
140118,คลองสระบัว,Khlong Sa Bua,14.371,100.563,1401,13000
140119,เกาะเรียน,Ko Rian,14.318,100.579,1401,13000
140120,บ้านป้อม,Ban Pom,14.347,100.529,1401,13000
140121,บ้านรุม,Ban Run,14.312,100.559,1401,13000
140201,ท่าเรือ,Tha Ruea,14.566,100.719,1402,13130
140202,จำปา,Champa,14.550,100.741,1402,13130
140203,ท่าหลวง,Tha Luang,14.548,100.764,1402,18270
140204,บ้านร่อม,Ban Rom,14.567,100.698,1402,13130
140205,ศาลาลอย,Sala Loi,14.532,100.700,1402,13130
140206,วังแดง,Wang Daeng,14.541,100.670,1402,13130
140207,โพธิ์เอน,Pho En,14.519,100.676,1402,13130
140208,ปากท่า,Pak Tha,14.504,100.692,1402,13130
140209,หนองขนาก,Nong Khanak,14.512,100.732,1402,13130
140210,ท่าเจ้าสนุก,Tha Chao Sanuk,14.543,100.717,1402,13130
140301,นครหลวง,Nakhon Luang,14.469,100.622,1403,13260
140302,ท่าช้าง,Tha Chang,14.511,100.652,1403,13260
140303,บ่อโพง,Bo Phong,14.406,100.603,1403,13260
140304,บ้านชุ้ง,Ban Chung,14.458,100.655,1403,13260
140305,ปากจั่น,Pak Chan,14.440,100.620,1403,13260
140306,บางระกำ,Bang Rakam,14.466,100.589,1403,13260
140307,บางพระครู,Bang Phra Khru,14.483,100.613,1403,13260
140308,แม่ลา,Mae La,14.503,100.619,1403,13260
140309,หนองปลิง,Nong Pling,14.423,100.640,1403,13260
140310,คลองสะแก,Khlong Sakae,14.424,100.604,1403,13260
140311,สามไถ,Sam Thai,14.489,100.675,1403,13260
140312,พระนอน,Phra Non,14.485,100.650,1403,13260
140401,บางไทร,Bang Sai,14.191,100.480,1404,13190
140402,บางพลี,Bang Phli,14.212,100.465,1404,13190
140403,สนามชัย,Sanam Chai,14.213,100.522,1404,13190
140404,บ้านแป้ง,Ban Paeng,14.232,100.507,1404,13190
140405,หน้าไม้,Na Mai,14.315,100.462,1404,13190
140406,บางยี่โท,Bang Yi Tho,14.299,100.445,1404,13190
140407,แคออก,Khae Ok,14.305,100.472,1404,13190
140408,แคตก,Khae Tok,14.287,100.480,1404,13190
140409,ช่างเหล็ก,Chang Lek,14.278,100.453,1404,13190
140410,กระแชง,Krachaeng,14.279,100.505,1404,13190
140411,บ้างกลึง,Ban Klueng,14.309,100.499,1404,13190
140412,ช้างน้อย,Chang Noi,14.252,100.505,1404,13190
140413,ห่อหมก,Homok,14.259,100.474,1404,13190
140414,ไผ่พระ,Phai Phra,14.222,100.432,1404,13190
140415,กกแก้วบูรพา,Kok Kaeo Burapha,14.188,100.435,1404,13190
140416,ไม้ตรา,Mai Tra,14.164,100.473,1404,13190
140417,บ้านม้า,Ban Ma,14.141,100.490,1404,13190
140418,บ้านเกาะ,Ban Ko,14.236,100.460,1404,13190
140419,ราชคราม,Ratchakhram,14.186,100.519,1404,13290
140420,ช้างใหญ่,Chang Yai,14.161,100.522,1404,13290
140422,เชียงรากน้อย,Chiang Rak Noi,14.134,100.561,1404,13290
140423,โคกช้าง,Khok Chang,14.123,100.492,1404,13190
140501,บางบาล,Bang Ban,14.410,100.464,1405,13250
140502,วัดยม,Wat Yom,14.390,100.497,1405,13250
140503,ไทรน้อย,Sai Noi,14.407,100.486,1405,13250
140504,สะพานไทย,Saphan Thai,14.363,100.486,1405,13250
140505,มหาพราหมณ์,Maha Phram,14.364,100.505,1405,13250
140506,กบเจา,Kop Chao,14.347,100.485,1405,13250
140507,บ้านคลัง,Ban Khlang,14.347,100.457,1405,13250
140508,พระขาว,Phra Khao,14.328,100.482,1405,13250
140509,น้ำเต้า,Namtao,14.339,100.438,1405,13250
140510,ทางช้าง,Thang Chang,14.375,100.432,1405,13250
140511,วัดตะกู,Wat Taku,14.388,100.424,1405,13250
140512,บางหลวง,Bang Luang,14.403,100.433,1405,13250
140513,บางหลวงโดด,Bang Luang Dot,14.419,100.430,1405,13250
140514,บางหัก,Bang Hak,14.436,100.439,1405,13250
140515,บางชะนี,Bang Chani,14.429,100.461,1405,13250
140516,บ้านกุ่ม,Ban Kum,14.436,100.492,1405,13250
140601,บ้านเลน,Ban Len,14.241,100.598,1406,13160
140602,เชียงรากน้อย,Chiang Rak Noi,14.160,100.594,1406,13180
140603,บ้านโพ,Ban Pho,14.272,100.588,1406,13160
140604,บ้านกรด,Ban Krot,14.307,100.604,1406,13160
140605,บางกระสั้น,Bang Krasan,14.189,100.565,1406,13160
140606,คลองจิก,Khlong Chik,14.214,100.597,1406,13160
140607,บ้านหว้า,Ban Wa,14.258,100.616,1406,13160
140608,วัดยม,Wat Yom,14.260,100.568,1406,13160
140609,บางประแดง,Bang Pradaeng,14.288,100.544,1406,13160
140610,สามเรือน,Sam Ruean,14.292,100.647,1406,13160
140611,เกาะเกิด,Ko Koet,14.206,100.539,1406,13160
140612,บ้านพลับ,Ban Phlap,14.223,100.552,1406,13160
140613,บ้านแป้ง,Ban Paeng,14.239,100.557,1406,13160
140614,คุ้งลาน,Khung Lan,14.295,100.621,1406,13160
140615,ตลิ่งชัน,Taling Chan,14.250,100.642,1406,13160
140616,บ้านสร้าง,Ban Sang,14.289,100.668,1406,13170
140618,ขนอนหลวง,Khanon Luang,14.266,100.542,1406,13160
140701,บางปะหัน,Bang Pahan,14.458,100.558,1407,13220
140702,ขยาย,Khayai,14.414,100.564,1407,13220
140703,บางเดื่อ,Bang Duea,14.436,100.576,1407,13220
140704,เสาธง,Sao Thong,14.496,100.549,1407,13220
140705,ทางกลาง,Thang Klang,14.513,100.544,1407,13220
140706,บางเพลิง,Bang Phloeng,14.500,100.577,1407,13220
140707,หันสัง,Hansang,14.512,100.517,1407,13220
140708,บางนางร้า,Bang Nang Ra,14.474,100.531,1407,13220
140709,ตานิม,Ta Nim,14.491,100.532,1407,13220
140710,ทับน้ำ,Thap Nam,14.464,100.508,1407,13220
140711,บ้านม้า,Ban Ma,14.492,100.510,1407,13220
140712,ขวัญเมือง,Khwan Mueang,14.444,100.536,1407,13220
140713,บ้านลี่,Ban Li,14.449,100.521,1407,13220
140714,โพธิ์สามต้น,Pho Sam Ton,14.421,100.547,1407,13220
140715,พุทเลา,Phutlao,14.419,100.525,1407,13220
140716,ตาลเอน,Tan En,14.524,100.563,1407,13220
140717,บ้านขล้อ,Ban Khlo,14.532,100.586,1407,13220
140801,ผักไห่,Phak Hai,14.462,100.379,1408,13120
140802,อมฤต,Ammarit,14.472,100.361,1408,13120
140803,บ้านแค,Ban Khae,14.495,100.405,1408,13120
140804,ลาดน้ำเค็ม,Lat Nam Khem,14.482,100.393,1408,13120
140805,ตาลาน,Ta Lan,14.446,100.387,1408,13120
140806,ท่าดินแดง,Tha Din Daeng,14.416,100.388,1408,13120
140807,ดอนลาน,Don Lan,14.433,100.286,1408,13280
140808,นาคู,Na Khu,14.468,100.272,1408,13280
140809,กุฎี,Kudi,14.439,100.407,1408,13120
140810,ลำตะเคียน,Lam Takhian,14.419,100.318,1408,13280
140811,โคกช้าง,Khok Chang,14.500,100.388,1408,13120
140812,จักราช,Chakkarat,14.447,100.340,1408,13280
140813,หนองน้ำใหญ่,Nong Nam Yai,14.474,100.311,1408,13280
140814,ลาดชิด,Lat Chit,14.422,100.358,1408,13120
140815,หน้าโคก,Na Khok,14.490,100.351,1408,13120
140816,บ้านใหญ่,Ban Yai,14.435,100.384,1408,13120
140901,ภาชี,Phachi,14.442,100.725,1409,13140
140902,โคกม่วง,Khok Muang,14.428,100.750,1409,13140
140903,ระโสม,Rasom,14.390,100.770,1409,13140
140904,หนองน้ำใส,Nong Nam Sai,14.457,100.751,1409,13140
140905,ดอนหญ้านาง,Don Ya Nang,14.478,100.739,1409,13140
140906,ไผ่ล้อม,Phai Lom,14.474,100.693,1409,13140
140907,กระจิว,Krachio,14.420,100.690,1409,13140
140908,พระแก้ว,Phra Kaeo,14.440,100.675,1409,13140
141001,ลาดบัวหลวง,Lat Bua Luang,14.193,100.319,1410,13230
141002,หลักชัย,Lak Chai,14.195,100.277,1410,13230
141003,สามเมือง,Sam Mueang,14.153,100.297,1410,13230
141004,พระยาบันลือ,Phraya Banlue,14.161,100.395,1410,13230
141005,สิงหนาท,Singhanat,14.132,100.423,1410,13230
141006,คู้สลอด,Khu Salot,14.196,100.369,1410,13230
141007,คลองพระยาบันลือ,Khlong Phraya Banlue,14.134,100.368,1410,13230
141101,ลำตาเสา,Lam Ta Sao,14.275,100.708,1411,13170
141102,บ่อตาโล่,Bo Ta Lo,14.241,100.674,1411,13170
141103,วังน้อย,Wang Noi,14.201,100.699,1411,13170
141104,ลำไทร,Lam Sai,14.200,100.641,1411,13170
141105,สนับทึบ,Sanap Thuep,14.298,100.813,1411,13170
141106,พยอม,Phayom,14.166,100.632,1411,13170
141107,หันตะเภา,Han Taphao,14.304,100.780,1411,13170
141108,ข้าวงาม,Wang Chula,14.229,100.758,1411,13170
141109,วังจุฬา,Khao Ngam,14.249,100.800,1411,13170
141110,ชะแมบ,Chamaep,14.257,100.748,1411,13170
141201,เสนา,Sena,14.328,100.404,1412,13110
141202,บ้านแพน,Ban Phaen,14.342,100.417,1412,13110
141203,เจ้าเจ็ด,Chao Chet,14.303,100.378,1412,13110
141204,สามกอ,Sam Ko,14.306,100.399,1412,13110
141205,บางนมโค,Bang Nom Kho,14.292,100.424,1412,13110
141206,หัวเวียง,Hua Wiang,14.376,100.402,1412,13110
141207,มารวิชัย,Manrawichai,14.240,100.371,1412,13110
141208,บ้านโพธิ์,Ban Pho,14.351,100.394,1412,13110
141209,รางจรเข้,Rang Chorakhe,14.351,100.366,1412,13110
141210,บ้านกระทุ่ม,Ban Krathum,14.390,100.383,1412,13110
141211,บ้านแถว,Ban Thaeo,14.301,100.348,1412,13110
141212,ชายนา,Chai Na,14.258,100.348,1412,13110
141213,สามตุ่ม,Sam Tum,14.240,100.406,1412,13110
141214,ลาดงา,Lat Nga,14.372,100.358,1412,13110
141215,ดอนทอง,Don Thong,14.240,100.306,1412,13110
141216,บ้านหลวง,Ban Luang,14.278,100.401,1412,13110
141217,เจ้าเสด็จ,Chao Sadet,14.331,100.363,1412,13110
141301,บางซ้าย,Bang Sai,14.314,100.286,1413,13270
141302,แก้วฟ้า,Kaeo Fa,14.313,100.326,1413,13270
141303,เต่าเล่า,Tao Lao,14.340,100.319,1413,13270
141304,ปลายกลัด,Plai Klat,14.382,100.315,1413,13270
141305,เทพมงคล,Thep Mongkhon,14.236,100.258,1413,13270
141306,วังพัฒนา,Wang Phatthana,14.272,100.296,1413,13270
141401,คานหาม,Khan Ham,14.335,100.641,1414,13210
141402,บ้านช้าง,Ban Chang,14.322,100.680,1414,13210
141403,สามบัณฑิต,Sam Bandit,14.349,100.742,1414,13210
141404,บ้านหีบ,Ban Hip,14.372,100.712,1414,13210
141405,หนองไม้ซุง,Nong Mai Sung,14.376,100.751,1414,13210
141406,อุทัย,Uthai,14.373,100.655,1414,13210
141407,เสนา,Sena,14.392,100.689,1414,13210
141408,หนองน้ำส้ม,Nong Nam Som,14.320,100.714,1414,13210
141409,โพสาวหาญ,Pho Sao Han,14.332,100.759,1414,13210
141410,ธนู,Thanu,14.355,100.622,1414,13210
141411,ข้าวเม่า,Khao Mao,14.379,100.624,1414,13210
141501,หัวไผ่,Hua Phai,14.532,100.525,1415,13150
141502,กะทุ่ม,Kathum,14.546,100.556,1415,13150
141503,มหาราช,Maha Rat,14.552,100.528,1415,13150
141504,น้ำเต้า,Namtao,14.566,100.542,1415,13150
141505,บางนา,Bang Na,14.576,100.581,1415,13150
141506,โรงช้าง,Rong Chang,14.602,100.563,1415,13150
141507,เจ้าปลุก,Chao Pluk,14.584,100.538,1415,13150
141508,พิตเพียน,Phitphian,14.608,100.544,1415,13150
141509,บ้านนา,Ban Na,14.606,100.510,1415,13150
141510,บ้านขวาง,Ban Khwang,14.576,100.518,1415,13150
141511,ท่าตอ,Tha To,14.556,100.511,1415,13150
141512,บ้านใหม่,Ban Mai,14.531,100.500,1415,13150
141601,บ้านแพรก,Ban Phraek,14.640,100.585,1416,13240
141602,บ้านใหม่,Ban Mai,14.655,100.586,1416,13240
141603,สำพะเนียง,Sam Phaniang,14.638,100.567,1416,13240
141604,คลองน้อย,Khlong Noi,14.627,100.553,1416,13240
141605,สองห้อง,Song Hong,14.646,100.519,1416,13240
150101,ตลาดหลวง,Talat Luang,14.592,100.453,1501,14000
150102,บางแก้ว,Bang Kaeo,14.588,100.459,1501,14000
150103,ศาลาแดง,Sala Daeng,14.599,100.445,1501,14000
150104,ป่างิ้ว,Pa Ngio,14.612,100.413,1501,14000
150105,บ้านแห,Ban Hae,14.565,100.434,1501,14000
150106,ตลาดกรวด,Talat Kruat,14.619,100.478,1501,14000
150107,มหาดไทย,Mahatthai,14.568,100.400,1501,14000
150108,บ้านอิฐ,Ban It,14.583,100.476,1501,14000
150109,หัวไผ่,Hua Phai,14.553,100.474,1501,14000
150110,จำปาหล่อ,Champa Lo,14.539,100.433,1501,14000
150111,โพสะ,Phosa,14.542,100.457,1501,14000
150112,บ้านรี,Ban Ri,14.605,100.485,1501,14000
150113,คลองวัว,Khlong Wua,14.578,100.432,1501,14000
150114,ย่านซื่อ,Yan Sue,14.619,100.447,1501,14000
150201,จรเข้ร้อง,Chorakhe Rong,14.658,100.482,1502,14140
150202,ไชยภูมิ,Chaiyaphum,14.705,100.465,1502,14140
150203,ชัยฤทธิ์,Chaiyarit,14.637,100.472,1502,14140
150204,เทวราช,Thewarat,14.646,100.449,1502,14140
150205,ราชสถิตย์,Ratchasathit,14.672,100.456,1502,14140
150206,ไชโย,Chaiyo,14.707,100.436,1502,14140
150207,หลักฟ้า,Lak Fa,14.684,100.462,1502,14140
150208,ชะไว,Chawai,14.687,100.494,1502,14140
150209,ตรีณรงค์,Tri Narong,14.676,100.498,1502,14140
150301,บางปลากด,Bang Pla Kot,14.509,100.461,1503,14130
150302,ป่าโมก,Pa Mok,14.501,100.437,1503,14130
150303,สายทอง,Sai Thong,14.513,100.484,1503,14130
150304,โรงช้าง,Rong Chang,14.488,100.472,1503,14130
150305,บางเสด็จ,Bang Sadet,14.461,100.473,1503,14130
150306,นรสิงห์,Norasing,14.518,100.431,1503,14130
150307,เอกราช,Ekkarat,14.477,100.426,1503,14130
150308,โผงเผง,Phong Pheng,14.455,100.442,1503,14130
150401,อ่างแก้ว,Ang Kaeo,14.666,100.393,1504,14120
150402,อินทประมูล,Inthapramun,14.651,100.425,1504,14120
150403,บางพลับ,Bang Phlap,14.641,100.406,1504,14120
150404,หนองแม่ไก่,Nong Mae Kai,14.708,100.351,1504,14120
150405,รำมะสัก,Ram Ma Sak,14.679,100.242,1504,14120
150406,บางระกำ,Bang Rakam,14.691,100.428,1504,14120
150407,โพธิ์รังนก,Pho Rang Nok,14.614,100.378,1504,14120
150408,องครักษ์,Ongkharak,14.731,100.398,1504,14120
150409,โคกพุทรา,Khok Phutsa,14.689,100.375,1504,14120
150410,ยางซ้าย,Yang Chai,14.658,100.297,1504,14120
150411,บ่อแร่,Bo Rae,14.637,100.372,1504,14120
150412,ทางพระ,Thang Phra,14.677,100.360,1504,14120
150413,สามง่าม,Sam Ngam,14.638,100.389,1504,14120
150414,บางเจ้าฉ่า,Bang Chao Cha,14.695,100.398,1504,14120
150415,คำหยาด,Kham Yat,14.676,100.323,1504,14120
150501,แสวงหา,Sawaeng Ha,14.763,100.310,1505,14150
150502,ศรีพราน,Si Phran,14.725,100.328,1505,14150
150503,บ้านพราน,Ban Phran,14.709,100.306,1505,14150
150504,วังน้ำเย็น,Wang Nam Yen,14.738,100.221,1505,14150
150505,สีบัวทอง,Si Bua Thong,14.769,100.248,1505,14150
150506,ห้วยไผ่,Huai Phai,14.789,100.324,1505,14150
150507,จำลอง,Chamlong,14.741,100.364,1505,14150
150601,ไผ่จำศีล,Phai Cham Sin,14.590,100.366,1506,14110
150602,ศาลเจ้าโรงทอง,San Chao Rong Thong,14.597,100.340,1506,14110
150603,ไผ่ดำพัฒนา,Phai Dam Phatthana,14.529,100.392,1506,14110
150604,สาวร้องไห้,Sao Rong Hai,14.546,100.223,1506,14110
150605,ท่าช้าง,Tha Chang,14.562,100.333,1506,14110
150606,ยี่ล้น,Yi Lon,14.579,100.301,1506,14110
150607,บางจัก,Bang Chak,14.502,100.330,1506,14110
150608,ห้วยคันแหลน,Huai Khan Laen,14.555,100.294,1506,14110
150609,คลองขนาก,Khlong Khanak,14.530,100.337,1506,14110
150610,ไผ่วง,Phai Wong,14.505,100.251,1506,14110
150611,สี่ร้อย,Si Roi,14.550,100.370,1506,14110
150612,ม่วงเตี้ย,Muang Tia,14.636,100.323,1506,14110
150613,หัวตะพาน,Hua Taphan,14.583,100.387,1506,14110
150614,หลักแก้ว,Lak Kaeo,14.517,100.289,1506,14110
150615,ตลาดใหม่,Talat Mai,14.542,100.315,1506,14110
150701,สามโก้,Samko,14.606,100.252,1507,14160
150702,ราษฎรพัฒนา,Ratsadon Phatthana,14.605,100.293,1507,14160
150703,อบทม,Op Thom,14.581,100.246,1507,14160
150704,โพธิ์ม่วงพันธ์,Pho Muang Phan,14.561,100.254,1507,14160
150705,มงคลธรรมนิมิต,Mongkhon Tham Nimit,14.640,100.260,1507,14160
160101,ทะเลชุบศร,Thale Chup Son,14.804,100.634,1601,15000
160102,ท่าหิน,Tha Hin,14.802,100.611,1601,15000
160103,กกโก,Kok Ko,14.767,100.684,1601,15000
160104,โก่งธนู,Kong Thanu,14.674,100.597,1601,13240
160105,เขาพระงาม,Khao Phra Ngam,14.901,100.670,1601,15160
160106,เขาสามยอด,Khao Sam Yot,14.830,100.671,1601,15000
160107,โคกกระเทียม,Khok Kathiam,14.890,100.580,1601,15160
160108,โคกลำพาน,Khok Lam Phan,14.740,100.640,1601,15000
160109,โคกตูม,Khok Tum,14.866,100.817,1601,15210
160110,งิ้วราย,Ngio Rai,14.704,100.592,1601,15000
160111,ดอนโพธิ์,Don Pho,14.691,100.627,1601,15000
160112,ตะลุง,Talung,14.737,100.601,1601,15000
160114,ท่าแค,Tha Khae,14.865,100.619,1601,15000
160115,ท่าศาลา,Tha Sala,14.792,100.671,1601,15000
160116,นิคมสร้างตนเอง,Nikhom Sang Ton-eng,14.824,100.732,1601,15000
160117,บางขันหมาก,Bang Khan Mak,14.820,100.583,1601,15000
160118,บ้านข่อย,Ban Khoi,14.683,100.529,1601,15000
160119,ท้ายตลาด,Thai Talat,14.725,100.563,1601,15000
160120,ป่าตาล,Pa Tan,14.778,100.640,1601,15000
160121,พรหมมาสตร์,Phrommat,14.820,100.603,1601,15000
160122,โพธิ์เก้าต้น,Pho Kao Ton,14.775,100.599,1601,15000
160123,โพธิ์ตรุ,Pho Tru,14.725,100.532,1601,15000
160124,สี่คลอง,Si Khlong,14.681,100.563,1601,15000
160125,ถนนใหญ่,Thanon Yai,14.831,100.629,1601,15000
160201,พัฒนานิคม,Phatthana Nikhom,14.896,100.966,1602,15140
160202,ช่องสาริกา,Chong Sarika,14.802,100.909,1602,15220
160203,มะนาวหวาน,Manao Wan,14.934,101.093,1602,15140
160204,ดีลัง,Di Lang,14.940,100.852,1602,15220
160205,โคกสลุง,Khok Salung,15.010,100.969,1602,15140
160206,ชอนน้อย,Chon Noi,14.795,100.985,1602,15140
160207,หนองบัว,Nong Bua,14.851,101.054,1602,15140
160208,ห้วยขุนราม,Huai Khun Ram,14.951,101.205,1602,18220
160209,น้ำสุด,Nam Sut,14.952,101.146,1602,15140
160301,โคกสำโรง,Khok Samrong,15.071,100.713,1603,15120
160302,เกาะแก้ว,Ko Kaeo,15.136,100.736,1603,15120
160303,ถลุงเหล็ก,Thalung Lek,15.064,100.680,1603,15120
160304,หลุมข้าว,Lum Khao,15.024,100.642,1603,15120
160305,ห้วยโป่ง,Huai Pong,14.981,100.677,1603,15120
160306,คลองเกตุ,Khlong Ket,14.967,100.802,1603,15120
160307,สะแกราบ,Sakae Rap,15.120,100.797,1603,15120
160308,เพนียด,Phaniat,15.036,100.812,1603,15120
160309,วังเพลิง,Wang Phloeng,15.062,100.841,1603,15120
160310,ดงมะรุม,Dong Marum,15.127,100.877,1603,15120
160318,วังขอนขว้าง,Wang Khon Khwang,15.023,100.697,1603,15120
160320,วังจั่น,Wang Chan,15.102,100.673,1603,15120
160322,หนองแขม,Nong Khaem,15.143,100.685,1603,15120
160401,ลำนารายณ์,Lam Narai,15.214,101.146,1604,15130
160402,ชัยนารายณ์,Chai Narai,15.195,101.037,1604,15130
160403,ศิลาทิพย์,Sila Thip,15.314,101.087,1604,15130
160404,ห้วยหิน,Huai Hin,15.154,101.044,1604,15130
160405,ม่วงค่อม,Muang Khom,15.078,101.024,1604,15230
160406,บัวชุม,Bua Chum,15.176,101.238,1604,15130
160407,ท่าดินดำ,Tha Din Dam,15.150,101.134,1604,15130
160408,มะกอกหวาน,Makok Wan,15.059,101.077,1604,15230
160409,ซับตะเคียน,Sap Takhian,15.112,101.327,1604,15130
160410,นาโสม,Na Som,15.245,101.282,1604,15190
160411,หนองยายโต๊ะ,Nong Yai To,15.220,101.264,1604,15130
160412,เกาะรัง,Ko Rang,15.318,101.251,1604,15130
160414,ท่ามะนาว,Tha Manao,15.187,101.162,1604,15130
160417,นิคมลำนารายณ์,Nikhom Lam Narai,15.264,101.150,1604,15130
160418,ชัยบาดาล,Chai Badan,15.095,101.058,1604,15230
160419,บ้านใหม่สามัคคี,Ban Mai Samakkhi,15.258,101.022,1604,15130
160422,เขาแหลม,Khao Laem,15.126,100.964,1604,15130
160501,ท่าวุ้ง,Tha Wung,14.820,100.496,1605,15150
160502,บางคู้,Bang Khu,14.804,100.529,1605,15150
160503,โพตลาดแก้ว,Pho Talat Kaeo,14.795,100.558,1605,15150
160504,บางลี่,Bang Li,14.849,100.526,1605,15150
160505,บางงา,Bang Nga,14.850,100.492,1605,15150
160506,โคกสลุด,Khok Salut,14.881,100.482,1605,15150
160507,เขาสมอคอน,Khao Samo Khon,14.906,100.447,1605,15180
160508,หัวสำโรง,Hua Samrong,14.776,100.494,1605,15150
160509,ลาดสาลี,Lat Sali,14.723,100.487,1605,15150
160511,มุจลินท์,Mutchalin,14.876,100.509,1605,15150
160601,ไผ่ใหญ่,Phai Yai,15.089,100.459,1606,15110
160602,บ้านทราย,Ban Sai,15.034,100.582,1606,15110
160603,บ้านกล้วย,Ban Kluai,15.016,100.578,1606,15110
160604,ดงพลับ,Dong Phlap,15.059,100.630,1606,15110
160605,บ้านชี,Ban Chi,14.947,100.500,1606,15180
160606,พุคา,Phu Kha,14.953,100.598,1606,15110
160607,หินปัก,Hin Pak,15.048,100.592,1606,15110
160608,บางพึ่ง,Bang Phueng,14.994,100.496,1606,15110
160609,หนองทรายขาว,Nong Sai Khao,14.996,100.597,1606,15110
160610,บางกะพี้,Bang Kaphi,15.073,100.613,1606,15110
160611,หนองเต่า,Nong Tao,14.963,100.555,1606,15110
160612,โพนทอง,Phon Thong,15.040,100.559,1606,15110
160613,บางขาม,Bang Kham,14.953,100.457,1606,15180
160614,ดอนดึง,Don Dueng,15.146,100.612,1606,15110
160615,ชอนม่วง,Chon Muang,15.210,100.610,1606,15110
160616,หนองกระเบียน,Nong Krabian,15.148,100.534,1606,15110
160617,สายห้วยแก้ว,Sai Huai Kaeo,15.095,100.509,1606,15110
160618,มหาสอน,Maha Son,15.021,100.484,1606,15110
160621,หนองเมือง,Nong Mueang,15.124,100.569,1606,15110
160622,สนามแจง,Sanam Chaeng,15.008,100.538,1606,15110
160701,ท่าหลวง,Tha Luang,15.071,101.117,1607,15230
160702,แก่งผักกูด,Kaeng Phak Kut,15.014,101.085,1607,15230
160703,ซับจำปา,Sap Champa,15.026,101.228,1607,15230
160704,หนองผักแว่น,Nong Phak Waen,15.119,101.216,1607,15230
160705,ทะเลวังวัด,Thale Wang Wat,15.023,101.184,1607,15230
160706,หัวลำ,Hua Lam,15.029,101.292,1607,15230
160801,สระโบสถ์,Sa Bot,15.224,100.846,1608,15240
160802,มหาโพธิ,Maha Phot,15.289,100.861,1608,15240
160803,ทุ่งท่าช้าง,Thung Tha Chang,15.169,100.817,1608,15240
160804,ห้วยใหญ่,Huai Yai,15.169,100.793,1608,15240
160805,นิยมชัย,Niyom Chai,15.183,100.904,1608,15240
160901,โคกเจริญ,Khok Charoen,15.408,100.777,1609,15250
160902,ยางราก,Yang Rak,15.366,100.935,1609,15250
160903,หนองมะค่า,Nong Makha,15.515,100.839,1609,15250
160904,วังทอง,Wang Thong,15.469,100.811,1609,15250
160905,โคกแสมสาร,Khok Samae San,15.344,100.850,1609,15250
161001,ลำสนธิ,Lam Sonthi,15.341,101.362,1610,15190
161002,ซับสมบูรณ์,Sap Sombun,15.193,101.354,1610,15190
161003,หนองรี,Nong Ri,15.282,101.319,1610,15190
161004,กุดตาเพชร,Kut Ta Phet,15.523,101.346,1610,15190
161005,เขารวก,Khao Ruak,15.374,101.330,1610,15190
161006,เขาน้อย,Khao Noi,15.112,101.387,1610,15130
161101,หนองม่วง,Nong Muang,15.230,100.664,1611,15170
161102,บ่อทอง,Bo Thong,15.293,100.652,1611,15170
161103,ดงดินแดง,Dong Din Daeng,15.385,100.679,1611,15170
161104,ชอนสมบูรณ์,Chon Sombun,15.288,100.763,1611,15170
161105,ยางโทน,Yang Thon,15.248,100.702,1611,15170
161106,ชอนสารเดช,Chon Saradet,15.195,100.709,1611,15170
170101,บางพุทรา,Bang Phutsa,14.890,100.404,1701,16000
170102,บางมัญ,Bang Man,14.916,100.400,1701,16000
170103,โพกรวม,Phok Ruam,14.944,100.394,1701,16000
170104,ม่วงหมู่,Muang Mu,14.869,100.432,1701,16000
170105,หัวไผ่,Hua Phai,14.965,100.429,1701,16000
170106,ต้นโพธิ์,Ton Pho,14.869,100.398,1701,16000
170107,จักรสีห์,Chaksi,14.836,100.398,1701,16000
170108,บางกระบือ,Bang Krabue,14.907,100.363,1701,16000
170201,สิงห์,Sing,14.890,100.338,1702,16130
170202,ไม้ดัด,Mai Dat,14.858,100.345,1702,16130
170203,เชิงกลัด,Choeng Klat,14.910,100.269,1702,16130
170204,โพชนไก่,Pho Chon Kai,14.929,100.292,1702,16130
170205,แม่ลา,Mae La,14.941,100.319,1702,16130
170206,บ้านจ่า,Ban Cha,14.852,100.284,1702,16130
170207,พักทัน,Phak Than,14.924,100.220,1702,16130
170208,สระแจง,Sa Chaeng,14.873,100.235,1702,16130
170301,โพทะเล,Pho Thale,14.829,100.257,1703,16150
170302,บางระจัน,Bang Rachan,14.799,100.296,1703,16150
170303,โพสังโฆ,Pho Sangkho,14.833,100.349,1703,16150
170304,ท่าข้าม,Tha Kham,14.827,100.368,1703,16150
170305,คอทราย,Kho Sai,14.817,100.281,1703,16150
170306,หนองกระทุ่ม,Nong Krathum,14.820,100.225,1703,16150
170401,พระงาม,Phra Ngam,14.748,100.422,1704,16120
170402,พรหมบุรี,Phrom Buri,14.837,100.451,1704,16160
170403,บางน้ำเชี่ยว,Bang Nam Chiao,14.783,100.458,1704,16120
170404,บ้านหม้อ,Ban Mo,14.746,100.461,1704,16120
170405,บ้านแป้ง,Ban Paeng,14.811,100.458,1704,16120
170406,หัวป่า,Hua Pa,14.831,100.425,1704,16120
170407,โรงช้าง,Rong Chang,14.801,100.425,1704,16120
170501,ถอนสมอ,Thon Samo,14.765,100.384,1705,16140
170502,โพประจักษ์,Pho Prachak,14.774,100.360,1705,16140
170503,วิหารขาว,Wihan Khao,14.801,100.409,1705,16140
170504,พิกุลทอง,Phikun Thong,14.772,100.410,1705,16140
170601,อินทร์บุรี,In Buri,15.009,100.329,1706,16110
170602,ประศุก,Prasuk,15.042,100.291,1706,16110
170603,ทับยา,Thap Ya,14.960,100.334,1706,16110
170604,งิ้วราย,Ngio Rai,14.988,100.389,1706,16110
170605,ชีน้ำร้าย,Chi Nam Rai,15.081,100.331,1706,16110
170606,ท่างาม,Tha Ngam,15.041,100.343,1706,16110
170607,น้ำตาล,Namtan,14.976,100.361,1706,16110
170608,ทองเอน,Thong En,15.046,100.385,1706,16110
170609,ห้วยชัน,Huai Chan,15.019,100.269,1706,16110
170610,โพธิ์ชัย,Pho Chai,15.027,100.439,1706,16110
180101,ในเมือง,Nai Mueang,15.181,100.127,1801,17000
180102,บ้านกล้วย,Ban Kluai,15.182,100.153,1801,17000
180103,ท่าชัย,Tha Chai,15.163,100.113,1801,17000
180104,ชัยนาท,Chai Nat,15.129,100.151,1801,17000
180105,เขาท่าพระ,Khao Tha Phra,15.218,100.134,1801,17000
180106,หาดท่าเสา,Hat Tha Sao,15.200,100.079,1801,17000
180107,ธรรมามูล,Thammamun,15.264,100.133,1801,17000
180108,เสือโฮก,Suea Hok,15.238,100.224,1801,17000
180109,นางลือ,Nang Lue,15.122,100.082,1801,17000
180201,คุ้งสำเภา,Khung Samphao,15.291,100.091,1802,17110
180202,วัดโคก,Wat Khok,15.326,100.107,1802,17110
180203,ศิลาดาน,Sila Dan,15.354,100.122,1802,17110
180204,ท่าฉนวน,Tha Chanuan,15.379,100.138,1802,17110
180205,หางน้ำสาคร,Hang Nam Sakhon,15.292,100.146,1802,17170
180206,ไร่พัฒนา,Rai Phatthana,15.333,100.225,1802,17170
180207,อู่ตะเภา,U Taphao,15.274,100.219,1802,17170
180301,วัดสิงห์,Wat Sing,15.263,100.041,1803,17120
180302,มะขามเฒ่า,Makham Thao,15.227,100.040,1803,17120
180303,หนองน้อย,Nong Noi,15.177,100.015,1803,17120
180304,หนองบัว,Nong Bua,15.283,100.013,1803,17120
180306,หนองขุ่น,Nong Khun,15.235,99.970,1803,17120
180307,บ่อแร่,Bo Rae,15.283,99.958,1803,17120
180311,วังหมัน,Wang Man,15.171,99.916,1803,17120
180401,สรรพยา,Sapphaya,15.128,100.233,1804,17150
180402,ตลุก,Taluk,15.195,100.198,1804,17150
180403,เขาแก้ว,Khao Kaeo,15.142,100.316,1804,17150
180404,โพนางดำตก,Pho Nang Dam Tok,15.084,100.272,1804,17150
180405,โพนางดำออก,Pho Nang Dam Ok,15.120,100.283,1804,17150
180406,บางหลวง,Bang Luang,15.143,100.197,1804,17150
180407,หาดอาษา,Hat Asa,15.165,100.262,1804,17150
180501,แพรกศรีราชา,Phraek Si Racha,15.062,100.107,1805,17140
180502,เที่ยงแท้,Thiang Thae,15.089,100.161,1805,17140
180503,ห้วยกรด,Huai Krot,15.096,100.203,1805,17140
180504,โพงาม,Pho Ngam,14.995,100.249,1805,17140
180505,บางขุด,Bang Khut,14.991,100.194,1805,17140
180506,ดงคอน,Dong Khon,14.976,100.135,1805,17140
180507,ดอนกำ,Don Kam,14.966,100.236,1805,17140
180508,ห้วยกรดพัฒนา,Huai Krot Phatthana,15.074,100.228,1805,17140
180601,หันคา,Hankha,15.016,99.998,1806,17130
180602,บ้านเชี่ยน,Ban Chian,14.942,99.997,1806,17130
180605,ไพรนกยูง,Phrai Nok Yung,15.081,99.856,1806,17130
180606,หนองแซง,Nong Saeng,15.107,99.973,1806,17160
180607,ห้วยงู,Huai Ngu,15.072,100.067,1806,17160
180608,วังไก่เถื่อน,Wang Kai Thuean,15.004,100.056,1806,17130
180609,เด่นใหญ่,Den Yai,15.017,99.930,1806,17130
180611,สามง่ามท่าโบสถ์,Sam Ngam Tha Bot,15.065,100.026,1806,17160
180701,หนองมะโมง,Nong Mamong,15.216,99.772,1807,17120
180702,วังตะเคียน,Wang Takhian,15.278,99.802,1807,17120
180703,สะพานหิน,Saphan Hin,15.197,99.827,1807,17120
180704,กุดจอก,Kut Chok,15.241,99.894,1807,17120
180801,เนินขาม,Noen Kham,14.957,99.901,1808,17130
180802,กะบกเตี้ย,Kabok Tia,15.036,99.816,1808,17130
180803,สุขเดือนห้า,Suk Duean Ha,14.968,99.828,1808,17130
190101,ปากเพรียว,Pak Phriao,14.527,100.915,1901,18000
190105,ดาวเรือง,Dao Rueang,14.563,100.901,1901,18000
190106,นาโฉง,Na Chong,14.529,100.886,1901,18000
190107,โคกสว่าง,Khok Sawang,14.510,100.886,1901,18000
190108,หนองโน,Nong No,14.489,100.861,1901,18000
190109,หนองยาว,Nong Yao,14.472,100.890,1901,18000
190110,ปากข้าวสาร,Pak Khao San,14.490,100.913,1901,18000
190111,หนองปลาไหล,Nong Pla Lai,14.456,100.962,1901,18000
190112,กุดนกเปล้า,Kut Nok Plao,14.502,100.976,1901,18000
190113,ตลิ่งชัน,Taling Chan,14.544,100.956,1901,18000
190114,ตะกุด,Takut,14.553,100.933,1901,18000
190201,แก่งคอย,Kaeng Khoi,14.586,101.002,1902,18110
190202,ทับกวาง,Thap Kwang,14.605,101.095,1902,18260
190203,ตาลเดี่ยว,Tan Diao,14.552,101.015,1902,18110
190204,ห้วยแห้ง,Huai Haeng,14.477,101.004,1902,18110
190205,ท่าคล้อ,Tha Khlo,14.712,100.993,1902,18110
190206,หินซ้อน,Hin Son,14.753,101.033,1902,18110
190207,บ้านธาตุ,Ban That,14.626,100.997,1902,18110
190208,บ้านป่า,Ban Pa,14.622,101.029,1902,18110
190209,ท่าตูม,Tha Tum,14.662,100.993,1902,18110
190210,ชะอม,Cha-om,14.418,101.134,1902,18110
190211,สองคอน,Song Khon,14.636,100.968,1902,18110
190212,เตาปูน,Tao Pun,14.603,100.956,1902,18110
190213,ชำผักแพว,Cham Phak Phaeo,14.529,101.090,1902,18110
190215,ท่ามะปราง,Tha Maprang,14.483,101.103,1902,18110
190301,หนองแค,Nong Khae,14.337,100.869,1903,18140
190302,กุ่มหัก,Kum Hak,14.312,100.863,1903,18140
190303,คชสิทธิ์,Khotchasit,14.391,100.807,1903,18250
190304,โคกตูม,Khok Tum,14.421,100.784,1903,18250
190305,โคกแย้,Khok Yae,14.387,100.928,1903,18230
190306,บัวลอย,Bua Loi,14.404,100.851,1903,18230
190307,ไผ่ต่ำ,Phai Tam,14.326,100.834,1903,18140
190308,โพนทอง,Phon Thong,14.425,100.813,1903,18250
190309,ห้วยขมิ้น,Huai Khamin,14.381,100.871,1903,18230
190310,ห้วยทราย,Huai Sai,14.420,100.933,1903,18230
190311,หนองไข่น้ำ,Nong Khai Nam,14.360,100.878,1903,18140
190312,หนองแขม,Nong Khaem,14.339,100.797,1903,18140
190313,หนองจิก,Nong Chik,14.441,100.866,1903,18230
190314,หนองจรเข้,Nong Chorakhe,14.334,100.907,1903,18140
190315,หนองนาก,Nong Nak,14.444,100.891,1903,18230
190316,หนองปลาหมอ,Nong Pla Mo,14.369,100.845,1903,18140
190317,หนองปลิง,Nong Pling,14.370,100.829,1903,18140
190318,หนองโรง,Nong Rong,14.279,100.865,1903,18140
190401,หนองหมู,Nong Mu,14.288,100.932,1904,18150
190402,บ้านลำ,Ban Lam,14.391,100.979,1904,18150
190403,คลองเรือ,Khlong Ruea,14.366,101.032,1904,18150
190404,วิหารแดง,Wihan Daeng,14.313,100.990,1904,18150
190405,หนองสรวง,Nong Suang,14.340,100.983,1904,18150
190406,เจริญธรรม,Charoen Tham,14.387,101.006,1904,18150
190501,หนองแซง,Nong Saeng,14.510,100.759,1905,18170
190502,หนองควายโซ,Nong Khwai So,14.487,100.795,1905,18170
190503,หนองหัวโพ,Nong Hua Pho,14.483,100.817,1905,18170
190504,หนองสีดา,Nong Sida,14.515,100.841,1905,18170
190505,หนองกบ,Nong Kop,14.456,100.776,1905,18170
190506,ไก่เส่า,Kai Sao,14.516,100.793,1905,18170
190507,โคกสะอาด,Khok Sa-at,14.456,100.802,1905,18170
190508,ม่วงหวาน,Muang Wan,14.476,100.836,1905,18170
190601,บ้านหมอ,Ban Mo,14.616,100.724,1906,18130
190602,บางโขมด,Bang Khamot,14.591,100.742,1906,18130
190603,สร้างโศก,Sang Sok,14.622,100.754,1906,18130
190604,ตลาดน้อย,Talat Noi,14.643,100.716,1906,18130
190605,หรเทพ,Horathep,14.628,100.670,1906,18130
190606,โคกใหญ่,Khok Yai,14.606,100.677,1906,18130
190607,ไผ่ขวาง,Phai Khwang,14.579,100.648,1906,18130
190608,บ้านครัว,Ban Khrua,14.584,100.767,1906,18270
190609,หนองบัว,Nong Bua,14.618,100.774,1906,18130
190701,ดอนพุด,Don Phut,14.596,100.621,1907,18210
190702,ไผ่หลิ่ว,Phai Lio,14.625,100.632,1907,18210
190703,บ้านหลวง,Ban Luang,14.571,100.620,1907,18210
190704,ดงตะงาว,Dong Ta-ngao,14.624,100.599,1907,18210
190801,หนองโดน,Nong Don,14.688,100.693,1908,18190
190802,บ้านกลับ,Ban Klap,14.730,100.684,1908,18190
190803,ดอนทอง,Don Thong,14.664,100.654,1908,18190
190804,บ้านโปร่ง,Ban Prong,14.716,100.734,1908,18190
190901,พระพุทธบาท,Phra Phutthabat,14.732,100.782,1909,18120
190902,ขุนโขลน,Khun Khlon,14.713,100.831,1909,18120
190903,ธารเกษม,Than Kasem,14.763,100.812,1909,18120
190904,นายาว,Na Yao,14.768,100.763,1909,18120
190905,พุคำจาน,Phu Kham Chan,14.744,100.847,1909,18120
190906,เขาวง,Khao Wong,14.679,100.830,1909,18120
190907,ห้วยป่าหวาย,Huai Pa Wai,14.638,100.830,1909,18120
190908,พุกร่าง,Phu Krang,14.682,100.784,1909,18120
191001,เสาไห้,Sao Hai,14.538,100.850,1910,18160
191002,บ้านยาง,Ban Yang,14.582,100.816,1910,18160
191003,หัวปลวก,Hua Pluak,14.615,100.844,1910,18160
191004,งิ้วงาม,Ngio Ngam,14.590,100.851,1910,18160
191005,ศาลารีไทย,Sala Ri Thai,14.565,100.848,1910,18160
191006,ต้นตาล,Ton Tan,14.574,100.885,1910,18160
191007,ท่าช้าง,Tha Chang,14.586,100.863,1910,18160
191008,พระยาทด,Phraya Thot,14.572,100.871,1910,18160
191009,ม่วงงาม,Muang Ngam,14.544,100.807,1910,18160
191010,เริงราง,Roeng Rang,14.558,100.786,1910,18160
191011,เมืองเก่า,Mueang Kao,14.540,100.825,1910,18160
191012,สวนดอกไม้,Suan Dok Mai,14.540,100.868,1910,18160
191101,มวกเหล็ก,Muak Lek,14.705,101.151,1911,18180
191102,มิตรภาพ,Mittraphap,14.474,101.213,1911,18180
191104,หนองย่างเสือ,Nong Yang Suea,14.789,101.270,1911,18180
191105,ลำสมพุง,Lam Somphung,15.007,101.381,1911,30130
191107,ลำพญากลาง,Lam Phaya Klang,14.871,101.367,1911,30130
191109,ซับสนุ่น,Sap Sanun,14.932,101.309,1911,18220
191201,แสลงพัน,Salaeng Phan,14.745,101.116,1912,18220
191202,คำพราน,Kham Phran,14.818,101.132,1912,18220
191203,วังม่วง,Wang Muang,14.861,101.151,1912,18220
191301,เขาดินพัฒนา,Khao Din Phatthana,14.612,100.906,1913,18000
191302,บ้านแก้ง,Ban Kaeng,14.582,100.936,1913,18000
191303,ผึ้งรวง,Phueng Ruang,14.607,100.931,1913,18000
191304,พุแค,Phu Khae,14.656,100.905,1913,18240
191305,ห้วยบง,Huai Bong,14.626,100.877,1913,18000
191306,หน้าพระลาน,Na Phra Lan,14.713,100.904,1913,18240
200101,บางปลาสร้อย,Bang Pla Soi,13.364,100.987,2001,20000
200102,มะขามหย่ง,Makham Yong,13.372,100.985,2001,20000
200103,บ้านโขด,Ban Khot,13.376,100.990,2001,20000
200104,แสนสุข,Saen Suk,13.274,100.928,2001,20130
200105,บ้านสวน,Ban Suan,13.347,100.977,2001,20000
200106,หนองรี,Nong Ri,13.307,101.057,2001,20000
200107,นาป่า,Na Pa,13.385,101.030,2001,20000
200108,หนองข้างคอก,Nong Khang Khok,13.305,101.006,2001,20000
200109,ดอนหัวฬอ,Don Hua Lo,13.421,101.044,2001,20000
200110,หนองไม้แดง,Nong Mai Daeng,13.406,101.003,2001,20000
200111,บางทราย,Bang Sai,13.393,100.996,2001,20000
200112,คลองตำหรุ,Khlong Tamru,13.441,100.982,2001,20000
200113,เหมือง,Mueang,13.263,100.959,2001,20130
200114,บ้านปึก,Ban Puek,13.302,100.928,2001,20130
200115,ห้วยกะปิ,Huai Kapi,13.304,100.968,2001,20000
200116,เสม็ด,Samet,13.326,100.951,2001,20000
200117,อ่างศิลา,Ang Sila,13.325,100.929,2001,20000
200118,สำนักบก,Samnak Bok,13.368,101.061,2001,20000
200201,บ้านบึง,Ban Bueng,13.297,101.107,2002,20170
200202,คลองกิ่ว,Khlong Kio,13.225,101.107,2002,20220
200203,มาบไผ่,Map Phai,13.359,101.093,2002,20170
200204,หนองซ้ำซาก,Nong Samsak,13.330,101.072,2002,20170
200205,หนองบอนแดง,Nong Bon Daeng,13.353,101.159,2002,20170
200206,หนองชาก,Nong Chak,13.298,101.172,2002,20170
200207,หนองอิรุณ,Nong Irun,13.280,101.247,2002,20220
200208,หนองไผ่แก้ว,Nong Phai Kaeo,13.213,101.246,2002,20220
200301,หนองใหญ่,Nong Yai,13.153,101.375,2003,20190
200302,คลองพลู,Khlong Phlu,13.115,101.476,2003,20190
200303,หนองเสือช้าง,Nong Suea Chang,13.117,101.283,2003,20190
200304,ห้างสูง,Hang Sung,13.243,101.347,2003,20190
200305,เขาซก,Khao Sok,13.070,101.420,2003,20190
200401,บางละมุง,Bang Lamung,13.052,100.922,2004,20150
200402,หนองปรือ,Nong Prue,12.920,100.935,2004,20150
200403,หนองปลาไหล,Nong Pla Lai,12.982,100.945,2004,20150
200404,โป่ง,Pong,12.933,100.987,2004,20150
200405,เขาไม้แก้ว,Khao Mai Kaeo,12.951,101.057,2004,20150
200406,ห้วยใหญ่,Huai Yai,12.835,100.985,2004,20150
200407,ตะเคียนเตี้ย,Takhian Tia,13.002,101.015,2004,20150
200408,นาเกลือ,Na Kluea,12.955,100.909,2004,20150
200409,เขตการปกคองพิเศษพัทยา,Na Kluea,12.910,100.884,2004,20150
200501,พานทอง,Phan Thong,13.461,101.084,2005,20160
200502,หนองตำลึง,Nong Tamlueng,13.408,101.078,2005,20160
200503,มาบโป่ง,Map Pong,13.431,101.121,2005,20160
200504,หนองกะขะ,Nong Kakha,13.431,101.095,2005,20160
200505,หนองหงษ์,Nong Hong,13.389,101.113,2005,20160
200506,โคกขี้หนอน,Khok Khi Non,13.552,101.114,2005,20160
200507,บ้านเก่า,Ban Kao,13.454,101.059,2005,20160
200508,หน้าประดู่,Na Pradu,13.497,101.099,2005,20160
200509,บางนาง,Bang Nang,13.487,101.067,2005,20160
200510,เกาะลอย,Ko Loi,13.519,101.074,2005,20160
200511,บางหัก,Bang Hak,13.544,101.075,2005,20160
200601,พนัสนิคม,Phanat Nikhom,13.450,101.180,2006,20140
200602,หน้าพระธาตุ,Na Phra That,13.468,101.147,2006,20140
200603,วัดหลวง,Wat Luang,13.518,101.161,2006,20140
200604,บ้านเชิด,Ban Soet,13.444,101.144,2006,20140
200605,นาเริก,Na Roek,13.405,101.248,2006,20140
200606,หมอนนาง,Mon Nang,13.346,101.257,2006,20140
200607,สระสี่เหลี่ยม,Sa Si Liam,13.554,101.239,2006,20140
200608,วัดโบสถ์,Wat Bot,13.498,101.139,2006,20140
200609,กุฎโง้ง,Kut Ngong,13.444,101.165,2006,20140
200610,หัวถนน,Hua Thanon,13.531,101.265,2006,20140
200611,ท่าข้าม,Tha Kham,13.559,101.177,2006,20140
200613,หนองปรือ,Nong Prue,13.511,101.254,2006,20140
200614,หนองขยาด,Nong Khayat,13.402,101.151,2006,20140
200615,ทุ่งขวาง,Thung Khwang,13.400,101.188,2006,20140
200616,หนองเหียง,Nong Hiang,13.464,101.330,2006,20140
200617,นาวังหิน,Na Wang Hin,13.442,101.251,2006,20140
200618,บ้านช้าง,Ban Chang,13.435,101.213,2006,20140
200620,โคกเพลาะ,Khok Phlo,13.520,101.121,2006,20140
200621,ไร่หลักทอง,Rai Lak Thong,13.484,101.184,2006,20140
200701,ศรีราชา,Si Racha,13.174,100.920,2007,20110
200702,สุรศักดิ์,Surasak,13.160,100.983,2007,20110
200703,ทุ่งสุขลา,Thung Sukhla,13.097,100.912,2007,20230
200704,บึง,Bueng,13.073,101.006,2007,20230
200705,หนองขาม,Nong Kham,13.134,101.038,2007,20110
200706,เขาคันทรง,Khao Khansong,13.129,101.123,2007,20110
200707,บางพระ,Bang Phra,13.223,101.007,2007,20110
200708,บ่อวิน,Bo Win,13.052,101.093,2007,20230
200801,ท่าเทววงษ์,Tha Tewatong,13.151,100.809,2008,20120
200901,สัตหีบ,Sattahip,12.638,100.871,2009,20180
200902,นาจอมเทียน,Na Chom Thian,12.775,100.940,2009,20250
200903,พลูตาหลวง,Phlu Ta Luang,12.701,100.967,2009,20180
200904,บางเสร่,Bang Sare,12.744,100.908,2009,20250
200905,แสมสาร,Samaesan,12.572,100.932,2009,20180
201001,บ่อทอง,Bo Thong,13.193,101.504,2010,20270
201002,วัดสุวรรณ,Wat Suwan,13.332,101.419,2010,20270
201003,บ่อกวางทอง,Bo Kwang Thong,13.318,101.308,2010,20270
201004,ธาตุทอง,That Thong,13.259,101.389,2010,20270
201005,เกษตรสุวรรณ,Kaset Suwan,13.326,101.526,2010,20270
201006,พลวงทอง,Phluang Thong,13.217,101.626,2010,20270
201101,เกาะจันทร์,Ko Chan,13.403,101.421,2011,20240
201102,ท่าบุญมี,Tha Bun Mi,13.389,101.288,2011,20240
210101,ท่าประดู่,Tha Pradu,12.672,101.266,2101,21000
210102,เชิงเนิน,Choeng Noen,12.677,101.318,2101,21000
210103,ตะพง,Taphong,12.653,101.364,2101,21000
210105,เพ,Phe,12.568,101.455,2101,21160
210106,แกลง,Klaeng,12.663,101.467,2101,21160
210107,บ้านแลง,Ban Laeng,12.707,101.377,2101,21000
210108,นาตาขวัญ,Na Ta Khwan,12.741,101.369,2101,21000
210109,เนินพระ,Noen Phra,12.681,101.223,2101,21000
210110,กระเฉด,Kachet,12.843,101.456,2101,21100
210111,ทับมา,Thap Ma,12.708,101.247,2101,21000
210112,น้ำคอก,Nam Khok,12.716,101.269,2101,21000
210114,มาบตาพุด,Map Ta Phut,12.701,101.188,2101,21150
210115,สำนักทอง,Samnak Thong,12.721,101.472,2101,21100
210201,สำนักท้อน,Samnak Thon,12.804,101.066,2102,21130
210202,พลา,Phla,12.688,101.025,2102,21130
210203,บ้านฉาง,Ban Chang,12.732,101.076,2102,21130
210301,ทางเกวียน,Thang Kwian,12.807,101.625,2103,21110
210302,วังหว้า,Wang Wa,12.763,101.624,2103,21110
210303,ชากโดน,Chak Don,12.700,101.604,2103,21110
210304,เนินฆ้อ,Noen Kho,12.704,101.678,2103,21110
210305,กร่ำ,Kram,12.668,101.631,2103,21190
210306,ชากพง,Chak Phong,12.668,101.549,2103,21190
210307,กระแสบน,Krasae Bon,12.871,101.611,2103,21110
210308,บ้านนา,Ban Na,12.846,101.674,2103,21110
210309,ทุ่งควายกิน,Thung Khwai Kin,12.808,101.733,2103,21110
210310,กองดิน,Kong Din,12.815,101.792,2103,22160
210311,คลองปูน,Khlong Pun,12.765,101.750,2103,21170
210312,พังราด,Phang Rat,12.729,101.772,2103,21110
210313,ปากน้ำกระแส,Pak Nam Krasae,12.717,101.709,2103,21170
210317,ห้วยยาง,Huai Yang,12.812,101.533,2103,21110
210318,สองสลึง,Song Salueng,12.743,101.548,2103,21110
210401,วังจันทร์,Wang Chan,12.858,101.528,2104,21210
210402,ชุมแสง,Chum Saeng,12.956,101.526,2104,21210
210403,ป่ายุบใน,Pa Yup Nai,13.005,101.479,2104,21210
210404,พลงตาเอี่ยม,Phlong Ta Iam,12.912,101.541,2104,21210
210501,บ้านค่าย,Ban Khai,12.775,101.304,2105,21120
210502,หนองละลอก,Nong Lalok,12.821,101.256,2105,21120
210503,หนองตะพาน,Nong Taphan,12.752,101.258,2105,21120
210504,ตาขัน,Ta Khan,12.735,101.321,2105,21120
210505,บางบุตร,Bang But,12.848,101.391,2105,21120
210506,หนองบัว,Nong Bua,12.906,101.373,2105,21120
210507,ชากบก,Chak Bok,12.783,101.364,2105,21120
210601,ปลวกแดง,Pluak Daeng,12.978,101.226,2106,21140
210602,ตาสิทธิ์,Ta Sit,13.038,101.225,2106,21140
210603,ละหาร,Lahan,12.973,101.311,2106,21140
210604,แม่น้ำคู้,Maenam Khu,12.908,101.230,2106,21140
210605,มาบยางพร,Map Yang Phon,12.970,101.136,2106,21140
210606,หนองไร่,Nong Rai,13.039,101.338,2106,21140
210701,น้ำเป็น,Nam Pen,12.901,101.749,2107,21110
210702,ห้วยทับมอญ,Huai Thap Mon,13.027,101.686,2107,21110
210703,ชำฆ้อ,Cham Kho,12.933,101.641,2107,21110
210704,เขาน้อย,Khao Noy,13.062,101.617,2107,21110
210801,นิคมพัฒนา,Nikhom Phatthana,12.856,101.177,2108,21180
210802,มาบข่า,Map Kha,12.782,101.193,2108,21180
210803,พนานิคม,Phana Nikhom,12.902,101.135,2108,21180
210804,มะขามคู่,Makham Khu,12.847,101.101,2108,21180
220101,ตลาด,Talat,12.591,102.087,2201,22000
220102,วัดใหม่,Wat Mai,12.611,102.105,2201,22000
220103,คลองนารายณ์,Khlong Narai,12.574,102.166,2201,22000
220104,เกาะขวาง,Ko Khwang,12.562,102.090,2201,22000
220105,คมบาง,Khom Bang,12.542,102.169,2201,22000
220106,ท่าช้าง,Tha Chang,12.644,102.098,2201,22000
220107,จันทนิมิต,Chanthanimit,12.610,102.123,2201,22000
220108,บางกะจะ,Bang Kacha,12.563,102.056,2201,22000
220109,แสลง,Salaeng,12.694,102.107,2201,22000
220110,หนองบัว,Nong Bua,12.534,102.101,2201,22000
220111,พลับพลา,Phlapphla,12.605,102.172,2201,22000
220201,ขลุง,Khlung,12.452,102.218,2202,22110
220202,บ่อ,Bo,12.412,102.279,2202,22110
220203,เกวียนหัก,Kwian Hak,12.468,102.200,2202,22110
220204,ตะปอน,Tapon,12.493,102.175,2202,22110
220205,บางชัน,Bang Chan,12.288,102.251,2202,22110
220206,วันยาว,Wan Yao,12.439,102.234,2202,22110
220207,ซึ้ง,Sueng,12.487,102.288,2202,22110
220208,มาบไพ,Map Phai,12.598,102.258,2202,22110
220209,วังสรรพรส,Wang Sappharot,12.560,102.290,2202,22110
220210,ตรอกนอง,Trok Nong,12.533,102.275,2202,22110
220211,ตกพรม,Tok Phrom,12.625,102.339,2202,22110
220212,บ่อเวฬุ,Bo Welu,12.723,102.367,2202,22150
220301,ท่าใหม่,Tha Mai,12.628,101.985,2203,22120
220302,ยายร้า,Yai Ra,12.612,102.027,2203,22120
220303,สีพยา,Si Phaya,12.578,102.029,2203,22120
220304,บ่อพุ,Bo Phu,12.595,102.028,2203,22120
220305,พลอยแหวน,Phloi Waen,12.617,102.053,2203,22120
220306,เขาวัว,Khao Wua,12.637,102.035,2203,22120
220307,เขาบายศรี,Khao Baisi,12.740,102.061,2203,22120
220308,สองพี่น้อง,Song Phi Nong,12.672,101.973,2203,22120
220309,ทุ่งเบญจา,Ramphan,12.814,102.014,2203,22170
220311,รำพัน,Ramphan,12.669,101.914,2203,22170
220312,โขมง,Khamong,12.620,101.940,2203,22170
220313,ตะกาดเง้า,Takat Ngao,12.581,101.989,2203,22120
220314,คลองขุด,Khlong Khut,12.563,101.935,2203,22120
220324,เขาแก้ว,Khao Kaeo,12.867,101.939,2203,22170
220401,ทับไทร,Thap Sai,12.950,102.247,2204,22140
220402,โป่งน้ำร้อน,Pong Nam Ron,12.890,102.382,2204,22140
220404,หนองตาคง,Nong Ta Khong,13.067,102.381,2204,22140
220409,เทพนิมิต,Thep Nimit,13.044,102.453,2204,22140
220410,คลองใหญ่,Khlong Yai,12.873,102.476,2204,22140
220501,มะขาม,Makham,12.677,102.187,2205,22150
220502,ท่าหลวง,Tha Luang,12.700,102.147,2205,22150
220503,ปัถวี,Patthawi,12.743,102.272,2205,22150
220504,วังแซ้ม,Wang Saem,12.756,102.156,2205,22150
220506,ฉมัน,Chaman,12.817,102.224,2205,22150
220508,อ่างคีรี,Ang Khiri,12.644,102.226,2205,22150
220601,ปากน้ำแหลมสิงห์,Pak Nam Laem Sing,12.452,102.122,2206,22130
220602,เกาะเปริด,Ko Proet,12.409,102.122,2206,22130
220603,หนองชิ่ม,Nong Chim,12.417,102.178,2206,22130
220604,พลิ้ว,Phlio,12.516,102.161,2206,22190
220605,คลองน้ำเค็ม,Khlong Nam Khem,12.498,102.123,2206,22190
220606,บางสระเก้า,Bang Sa Kao,12.511,102.109,2206,22190
220607,บางกะไชย,Bang Kachai,12.465,102.066,2206,22120
220701,ปะตง,Patong,13.170,102.194,2207,22180
220702,ทุ่งขนาน,Thung Khanan,13.232,102.319,2207,22180
220703,ทับช้าง,Thap Chang,13.265,102.161,2207,22180
220704,ทรายขาว,Sai Khao,13.086,102.197,2207,22180
220705,สะตอน,Saton,13.174,102.371,2207,22180
220801,แก่งหางแมว,Kaeng Hang Maeo,12.982,101.929,2208,22160
220802,ขุนซ่อง,Khun Song,13.169,101.961,2208,22160
220803,สามพี่น้อง,Sam Phi Nong,12.977,101.817,2208,22160
220804,พวา,Phawa,13.105,101.791,2208,22160
220805,เขาวงกต,Khao Wongkot,12.881,101.848,2208,22160
220901,นายายอาม,Na Yai Am,12.782,101.847,2209,22160
220902,วังโตนด,Wang Tanot,12.701,101.933,2209,22170
220903,กระแจะ,Krachae,12.689,101.861,2209,22170
220904,สนามไชย,Sanam Chai,12.625,101.874,2209,22170
220905,ช้างข้าม,Chang Kham,12.707,101.819,2209,22160
220906,วังใหม่,Wang Mai,12.764,101.904,2209,22170
221001,ซากไทย,Chak Thai,12.765,102.101,2210,22210
221002,พลวง,Phluang,12.822,102.106,2210,22210
221003,ตะเคียนทอง,Takhian Thong,12.903,102.132,2210,22210
221004,คลองพลู,Khlong Phlu,12.931,102.014,2210,22210
221005,จันทเขลม,Chanthakhlem,13.071,102.090,2210,22210
230102,หนองเสม็ด,Nong Samet,12.216,102.504,2301,23000
230103,หนองโสน,Nong Sano,12.184,102.488,2301,23000
230104,หนองคันทรง,Nong Khan Song,12.194,102.542,2301,23000
230105,ห้วงน้ำขาว,Huang Nam Khao,12.143,102.518,2301,23000
230106,อ่าวใหญ่,Ao Yai,12.078,102.562,2301,23000
230107,วังกระแจะ,Wang Krachae,12.272,102.479,2301,23000
230108,ห้วยแร้ง,Huai Raeng,12.387,102.560,2301,23000
230109,เนินทราย,Noen Sai,12.283,102.547,2301,23000
230110,ท่าพริก,Tha Phrik,12.243,102.589,2301,23000
230111,ท่ากุ่ม,Tha Kum,12.345,102.675,2301,23000
230112,ตะกาง,Takang,12.250,102.659,2301,23000
230113,ชำราก,Chamrak,12.194,102.677,2301,23000
230114,แหลมกลัด,Laem Klat,12.117,102.704,2301,23000
230201,คลองใหญ่,Khlong Yai,11.774,102.889,2302,23110
230202,ไม้รูด,Mai Rut,11.910,102.805,2302,23110
230203,หาดเล็ก,Hat Lek,11.699,102.909,2302,23110
230301,เขาสมิง,Khao Saming,12.340,102.437,2303,23130
230302,แสนตุ้ง,Saen Tung,12.398,102.382,2303,23150
230303,วังตะเคียน,Wang Takhian,12.478,102.531,2303,23130
230304,ท่าโสม,Tha Som,12.296,102.346,2303,23150
230305,สะตอ,Sato,12.553,102.434,2303,23150
230306,ประณีต,Pranit,12.525,102.359,2303,23150
230307,เทพนิมิต,Thep Nimit,12.469,102.435,2303,23150
230308,ทุ่งนนทรี,Thung Nonsi,12.405,102.501,2303,23130
230401,บ่อพลอย,Bo Phloi,12.604,102.559,2304,23140
230402,ช้างทูน,Chang Thun,12.585,102.469,2304,23140
230403,ด่านชุมพล,Dan Chumphon,12.461,102.664,2304,23140
230404,หนองบอน,Nong Bon,12.683,102.447,2304,23140
230405,นนทรีย์,Nonsi,12.544,102.600,2304,23140
230501,แหลมงอบ,Laem Ngop,12.186,102.419,2305,23120
230502,น้ำเชี่ยว,Nam Chiao,12.209,102.436,2305,23120
230503,บางปิด,Bang Pit,12.241,102.301,2305,23120
230507,คลองใหญ่,Khlong Yai,12.226,102.362,2305,23120
230601,เกาะหมาก,Ko Mak,11.804,102.383,2306,23120
230602,เกาะกูด,Ko Kut,11.719,102.519,2306,23000
230701,เกาะช้าง,Ko Chang,12.070,102.321,2307,23170
230702,เกาะช้างใต้,Ko Chang Tai,11.996,102.331,2307,23170
240101,หน้าเมือง,Na Mueang,13.686,101.066,2401,24000
240102,ท่าไข่,Tha Khai,13.736,101.060,2401,24000
240103,บ้านใหม่,Ban Mai,13.707,101.100,2401,24000
240104,คลองนา,Khlong Na,13.648,101.102,2401,24000
240105,บางตีนเป็ด,Khlong Na,13.661,101.075,2401,24000
240106,บางไผ่,Bang Phai,13.692,101.102,2401,24000
240107,คลองจุกกระเฌอ,Khlong Chuk Krachoe,13.686,101.125,2401,24000
240108,บางแก้ว,Bang Kaeo,13.765,101.094,2401,24000
240109,บางขวัญ,Bang Khwan,13.780,101.054,2401,24000
240110,คลองนครเนื่องเขต,Khlong Nakhon Nueang Khet,13.766,101.008,2401,24000
240111,วังตะเคียน,Wang Takhian,13.719,101.034,2401,24000
240112,โสธร,Sothon,13.680,101.053,2401,24000
240113,บางพระ,Bang Phra,13.653,101.020,2401,24000
240114,บางกระไห,Bang Kahai,13.670,101.002,2401,24000
240115,หนามแดง,Nam Daeng,13.736,100.989,2401,24000
240116,คลองเปรง,Khlong Preng,13.707,100.933,2401,24000
240117,คลองอุดมชลจร,Khlong Udom Chonlachon,13.736,100.920,2401,24000
240118,คลองหลวงแพ่ง,Khlong Luang Phaeng,13.780,100.927,2401,24000
240119,บางเตย,Bang Toei,13.706,100.993,2401,24000
240201,บางคล้า,Bang Khla,13.722,101.210,2402,24110
240204,บางสวน,Bang Suan,13.696,101.177,2402,24110
240208,บางกระเจ็ด,Bang Krachet,13.852,101.208,2402,24110
240209,ปากน้ำ,Pak Nam,13.753,101.212,2402,24110
240210,ท่าทองหลาง,Tha Thonglang,13.694,101.229,2402,24110
240211,สาวชะโงก,Sao Cha-ngok,13.683,101.152,2402,24110
240212,เสม็ดเหนือ,Samet Nuea,13.673,101.201,2402,24110
240213,เสม็ดใต้,Samet Tai,13.653,101.162,2402,24110
240214,หัวไทร,Hua Sai,13.799,101.221,2402,24110
240301,บางน้ำเปรี้ยว,Bang Nam Priao,13.829,101.002,2403,24150
240302,บางขนาก,Bang Khanak,13.858,101.115,2403,24150
240303,สิงโตทอง,Singto Thong,13.911,101.073,2403,24150
240304,หมอนทอง,Mon Thong,13.874,101.043,2403,24150
240305,บึงน้ำรักษ์,Bueng Nam Rak,13.908,100.926,2403,24170
240306,ดอนเกาะกา,Don Ko Ka,13.944,101.016,2403,24170
240307,โยธะกา,Yothaka,13.925,101.128,2403,24150
240308,ดอนฉิมพลี,Don Chimphli,13.908,100.964,2403,24170
240309,ศาลาแดง,Sala Daeng,13.838,100.928,2403,24000
240310,โพรงอากาศ,Phrong Akat,13.827,101.062,2403,24150
240401,บางปะกง,Bang Pakong,13.496,100.966,2404,24130
240402,ท่าสะอ้าน,Tha Sa-an,13.553,100.995,2404,24130
240403,บางวัว,Bang Wua,13.569,100.964,2404,24180
240404,บางสมัคร,Bang Samak,13.575,100.936,2404,24180
240405,บางผึ้ง,Bang Phueng,13.527,101.054,2404,24130
240406,บางเกลือ,Bang Kluea,13.526,100.919,2404,24180
240407,สองคลอง,Song Khlong,13.484,100.910,2404,24130
240408,หนองจอก,Nong Chok,13.603,100.989,2404,24130
240409,พิมพา,Phimpha,13.599,100.937,2404,24180
240410,ท่าข้าม,Tha Kham,13.479,100.994,2404,24130
240411,หอมศีล,Hom Sin,13.543,100.892,2404,24180
240412,เขาดิน,Khao Din,13.528,101.026,2404,24130
240501,บ้านโพธิ์,Ban Pho,13.588,101.086,2405,24140
240502,เกาะไร่,Ko Rai,13.678,100.958,2405,24140
240503,คลองขุด,Khlong Khut,13.611,101.194,2405,24140
240504,คลองบ้านโพธิ์,Khlong Ban Pho,13.572,101.057,2405,24140
240505,คลองประเวศ,Khlong Prawet,13.630,101.024,2405,24140
240506,ดอนทราย,Don Sai,13.631,101.125,2405,24140
240507,เทพราช,Theppharat,13.641,100.982,2405,24140
240508,ท่าพลับ,Tha Phlap,13.616,101.075,2405,24140
240509,หนองตีนนก,Nong Tin Nok,13.585,101.107,2405,24140
240510,หนองบัว,Nong Bua,13.617,101.101,2405,24140
240511,บางซ่อน,Bang Son,13.558,101.058,2405,24140
240512,บางกรูด,Bang Krut,13.633,101.078,2405,24140
240513,แหลมประดู่,Laem Pradu,13.597,101.209,2405,24140
240514,ลาดขวาง,Lat Khwang,13.605,101.023,2405,24140
240515,สนามจันทร์,Sanam Chan,13.594,101.066,2405,24140
240516,แสนภูดาษ,Saen Phu Dat,13.582,101.015,2405,24140
240517,สิบเอ็ดศอก,Sip Et Sok,13.605,101.148,2405,24140
240601,เกาะขนุน,Ko Khanun,13.695,101.399,2406,24120
240602,บ้านซ่อง,Ban Song,13.803,101.403,2406,24120
240603,พนมสารคาม,Phanom Sarakham,13.771,101.324,2406,24120
240604,เมืองเก่า,Mueang Kao,13.728,101.319,2406,24120
240605,หนองยาว,Nong Yao,13.816,101.351,2406,24120
240606,ท่าถ่าน,Tha Than,13.760,101.383,2406,24120
240607,หนองแหน,Nong Nae,13.661,101.335,2406,24120
240608,เขาหินซ้อน,Khao Hin Son,13.750,101.494,2406,24120
240701,บางคา,Bang Kha,13.788,101.278,2407,24120
240702,เมืองใหม่,Mueang Mai,13.715,101.278,2407,24120
240703,ดงน้อย,Dong Noi,13.836,101.291,2407,24120
240801,คู้ยายหมี,Khu Yai Mi,13.644,101.461,2408,24160
240802,ท่ากระดาน,Tha Kradan,13.606,101.710,2408,24160
240803,ทุ่งพระยา,Thung Phraya,13.687,101.745,2408,24160
240805,ลาดกระทิง,Lat Krathing,13.548,101.475,2408,24160
240901,แปลงยาว,Plaeng Yao,13.599,101.293,2409,24190
240902,วังเย็น,Wang Yen,13.536,101.334,2409,24190
240903,หัวสำโรง,Hua Samrong,13.624,101.315,2409,24190
240904,หนองไม้แก่น,Nong Mai Kaen,13.504,101.404,2409,24190
241001,ท่าตะเกียบ,Tha Takiap,13.508,101.639,2410,24160
241002,คลองตะเกรา,Khlong Takrao,13.299,101.739,2410,24160
241101,ก้อนแก้ว,Kon Kaeo,13.765,101.136,2411,24000
241102,คลองเขื่อน,Khlong Khuean,13.772,101.185,2411,24000
241103,บางเล่า,Bang Lao,13.721,101.150,2411,24000
241104,บางโรง,Bang Rong,13.824,101.137,2411,24000
241105,บางตลาด,Bang Talat,13.736,101.165,2411,24110
250101,หน้าเมือง,Na Mueang,14.057,101.374,2501,25000
250102,รอบเมือง,Na Mueang,14.066,101.327,2501,25000
250103,วัดโบสถ์,Wat Bot,14.034,101.310,2501,25000
250104,บางเดชะ,Bang Decha,13.991,101.330,2501,25000
250105,ท่างาม,Tha Ngam,14.017,101.413,2501,25000
250106,บางบริบูรณ์,Bang Boribun,14.039,101.429,2501,25000
250107,ดงพระราม,Dong Phra Ram,14.072,101.394,2501,25000
250108,บ้านพระ,Ban Phra,14.116,101.361,2501,25230
250109,โคกไม้ลาย,Khok Mai Lai,14.140,101.298,2501,25230
250111,ดงขี้เหล็ก,Dong Khilek,14.132,101.439,2501,25000
250112,เนินหอม,Noen Hom,14.181,101.378,2501,25230
250113,โนนห้อม,Non Hom,14.094,101.463,2501,25000
250201,กบินทร์,Kabin,13.939,101.711,2502,25110
250202,เมืองเก่า,Mueang Kao,13.999,101.770,2502,25240
250203,วังดาล,Wang Dan,14.006,101.645,2502,25110
250204,นนทรี,Nonsi,14.056,101.668,2502,25110
250205,ย่านรี,Yan Ri,13.897,101.785,2502,25110
250206,วังตะเคียน,Wang Takhian,13.849,101.870,2502,25110
250207,หาดนางแก้ว,Hat Nang Kaeo,13.963,101.642,2502,25110
250208,ลาดตะเคียน,Lat Takhian,13.873,101.658,2502,25110
250209,บ้านนา,Ban Na,13.990,101.880,2502,25110
250210,บ่อทอง,Bo Thong,13.935,101.881,2502,25110
250211,หนองกี่,Nong Ki,14.068,101.841,2502,25110
250212,นาแขม,Na Khaem,14.052,101.723,2502,25110
250213,เขาไม้แก้ว,Khao Mai Kaeo,13.801,101.775,2502,25110
250214,วังท่าช้าง,Wang Tha Chang,13.694,101.885,2502,25110
250301,นาดี,Na Di,14.189,101.792,2503,25220
250302,สำพันตา,Samphan Ta,14.081,101.766,2503,25220
250303,สะพานหิน,Saphan Hin,14.152,101.665,2503,25220
250304,ทุ่งโพธิ์,Thung Pho,14.141,101.889,2503,25220
250305,แก่งดินสอ,Kaeng Dinso,14.095,101.984,2503,25220
250306,บุพราหมณ์,Bu Phram,14.268,101.872,2503,25220
250601,บ้านสร้าง,Ban Sang,14.026,101.210,2506,25150
250602,บางกระเบา,Bang Krabao,13.984,101.202,2506,25150
250603,บางเตย,Bang Toei,13.946,101.223,2506,25150
250604,บางยาง,Bang Yang,13.940,101.175,2506,25150
250605,บางแตน,Bang Taen,13.890,101.177,2506,25150
250606,บางพลวง,Bang Phluang,13.986,101.282,2506,25150
250607,บางปลาร้า,Bang Pla Ra,13.926,101.313,2506,25150
250608,บางขาม,Bang Kham,13.893,101.274,2506,25150
250609,กระทุ่มแพ้ว,Krathum Phaeo,13.891,101.346,2506,25150
250701,ประจันตคาม,Prachantakham,14.055,101.497,2507,25130
250702,เกาะลอย,Ko Loi,14.021,101.515,2507,25130
250703,บ้านหอย,Ban Hoi,13.996,101.567,2507,25130
250704,หนองแสง,Nong Saeng,14.052,101.563,2507,25130
250705,ดงบัง,Dong Bang,14.020,101.579,2507,25130
250706,คำโตนด,Kham Tanot,14.112,101.597,2507,25130
250707,บุฝ้าย,Bu Fai,14.298,101.601,2507,25130
250708,หนองแก้ว,Nong Kaeo,14.111,101.548,2507,25130
250709,โพธิ์งาม,Pho Ngam,14.214,101.466,2507,25130
250801,ศรีมหาโพธิ,Si Maha Phot,13.849,101.567,2508,25140
250802,สัมพันธ์,Samphan,13.997,101.480,2508,25140
250803,บ้านทาม,Ban Tham,13.976,101.552,2508,25140
250804,ท่าตูม,Tha Tum,13.932,101.571,2508,25140
250805,บางกุ้ง,Bang Kung,13.964,101.483,2508,25140
250806,ดงกระทงยาม,Dong Krathong Yam,13.958,101.426,2508,25140
250807,หนองโพรง,Nong Phrong,13.787,101.581,2508,25140
250808,หัวหว้า,Hua Wa,13.908,101.461,2508,25140
250809,หาดยาง,Hat Yang,13.988,101.432,2508,25140
250810,กรอกสมบูรณ์,Krok Sombun,13.767,101.660,2508,25140
250901,โคกปีบ,Khok Pip,13.880,101.412,2509,25190
250902,โคกไทย,Khok Thai,13.845,101.448,2509,25190
250903,คู้ลำพัน,Khu Lam Phan,13.926,101.410,2509,25190
250904,ไผ่ชะเลือด,Phai Cha Lueat,13.919,101.372,2509,25190
260101,นครนายก,Nakhon Nayok,14.198,101.233,2601,26000
260102,ท่าช้าง,Tha Chang,14.192,101.176,2601,26000
260103,บ้านใหญ่,Ban Yai,14.221,101.225,2601,26000
260104,วังกระโจม,Wang Krachom,14.176,101.212,2601,26000
260105,ท่าทราย,Tha Sai,14.174,101.111,2601,26000
260106,ดอนยอ,Don Yo,14.128,101.109,2601,26000
260107,ศรีจุฬา,Si Chula,14.072,101.132,2601,26000
260108,ดงละคร,Dong Lakhon,14.136,101.167,2601,26000
260109,ศรีนาวา,Si Nawa,14.209,101.267,2601,26000
260110,สาริกา,Sarika,14.359,101.261,2601,26000
260111,หินตั้ง,Hin Tang,14.408,101.352,2601,26000
260112,เขาพระ,Khao Phra,14.301,101.212,2601,26000
260113,พรหมณี,Phrommani,14.264,101.164,2601,26000
260201,เกาะหวาย,Ko Wai,14.175,101.271,2602,26130
260202,เกาะโพธิ์,Ko Pho,14.156,101.231,2602,26130
260203,ปากพลี,Pak Phli,14.132,101.263,2602,26130
260204,โคกกรวด,Khok Kruat,14.180,101.306,2602,26130
260205,ท่าเรือ,Tha Ruea,14.085,101.235,2602,26130
260206,หนองแสง,Nong Saeng,14.211,101.307,2602,26130
260207,นาหินลาด,Na Hin Lat,14.317,101.457,2602,26130
260301,บ้านนา,Ban Na,14.262,101.059,2603,26110
260302,บ้านพร้าว,Ban Phrao,14.222,101.101,2603,26110
260303,บ้านพริก,Ban Phrik,14.252,100.976,2603,26110
260304,อาษา,Asa,14.226,101.009,2603,26110
260305,ทองหลาง,Thonglang,14.207,101.037,2603,26110
260306,บางอ้อ,Bang O,14.176,101.069,2603,26110
260307,พิกุลออก,Phikun Ok,14.244,101.027,2603,26110
260308,ป่าขะ,Pa Kha,14.297,101.065,2603,26110
260309,เขาเพิ่ม,Khao Phoem,14.362,101.096,2603,26110
260310,ศรีกะอาง,Si Ka-ang,14.308,101.117,2603,26110
260401,พระอาจารย์,Phra Achan,13.986,101.020,2604,26120
260402,บึงศาล,Bueng San,14.052,100.938,2604,26120
260403,ศรีษะกระบือ,Sisa Krabue,14.043,100.986,2604,26120
260404,โพธิ์แทน,Pho Thaen,14.208,100.949,2604,26120
260405,บางสมบูรณ์,Bang Sombun,14.021,101.112,2604,26120
260406,ทรายมูล,Sai Mun,14.123,101.069,2604,26120
260407,บางปลากด,Bang Pla Kot,14.166,100.971,2604,26120
260408,บางลูกเสือ,Bang Luk Suea,14.054,101.066,2604,26120
260409,องครักษ์,Ongkharak,14.107,101.005,2604,26120
260410,ชุมพล,Chumphon,13.990,100.937,2604,26120
260411,คลองใหญ่,Khlong Yai,14.127,100.980,2604,26120
270101,สระแก้ว,Sa Kaeo,13.803,102.077,2701,27000
270102,บ้านแก้ง,Ban Kaeng,13.984,101.990,2701,27000
270103,ศาลาลำดวน,Sala Lamduan,13.838,101.964,2701,27000
270104,โคกปี่ฆ้อง,Khok Pi Khong,13.925,102.028,2701,27000
270105,ท่าแยก,Tha Yaek,14.064,102.266,2701,27000
270106,ท่าเกษม,Tha Kasem,13.766,102.164,2701,27000
270108,สระขวัญ,Sa Khwan,13.763,102.008,2701,27000
270111,หนองบอน,Nong Bon,13.850,102.087,2701,27000
270201,คลองหาด,Khlong Hat,13.429,102.329,2702,27260
270202,ไทยอุดม,Thai Udom,13.407,102.260,2702,27260
270203,ซับมะกรูด,Sap Makrut,13.519,102.228,2702,27260
270204,ไทรเดี่ยว,Sai Diao,13.593,102.212,2702,27260
270205,คลองไก่เถื่อน,Khlong Kai Thuean,13.346,102.301,2702,27260
270206,เบญจขร,Benchakhon,13.542,102.307,2702,27260
270207,ไทรทอง,Sai Thong,13.614,102.309,2702,27260
270301,ตาพระยา,Ta Phraya,13.956,102.764,2703,27180
270302,ทัพเสด็จ,Thap Sadet,14.047,102.813,2703,27180
270306,ทัพราช,Thap Rat,14.079,102.639,2703,27180
270307,ทัพไทย,Thap Thai,14.123,102.845,2703,27180
270309,โคคลาน,Kho Khlan,13.968,102.650,2703,27180
270401,วังน้ำเย็น,Wang Nam Yen,13.517,102.166,2704,27210
270403,ตาหลังใน,Ta Lang Nai,13.471,102.130,2704,27210
270405,คลองหินปูน,Khlong Hin Pun,13.606,102.104,2704,27210
270406,ทุ่งมหาเจริญ,Thung Maha Charoen,13.482,102.009,2704,27210
270501,วัฒนานคร,Watthana Nakhon,13.741,102.325,2705,27160
270502,ท่าเกวียน,Tha Kwian,13.666,102.251,2705,27160
270503,ผักขะ,Phak Kha,13.710,102.382,2705,27160
270504,โนนหมากเค็ง,Non Mak Kheng,13.824,102.315,2705,27160
270505,หนองน้ำใส,Nong Nam Sai,13.871,102.341,2705,27160
270506,ช่องกุ่ม,Chong Kum,14.001,102.449,2705,27160
270507,หนองแวง,Nong Waeng,13.799,102.372,2705,27160
270508,แซร์ออ,Sae-o,13.974,102.518,2705,27160
270509,หนองหมากฝ้าย,Nong Mak Fai,14.024,102.358,2705,27160
270510,หนองตะเคียนบอน,Nong Takhian Bon,13.916,102.265,2705,27160
270511,ห้วยโจด,Huai Chot,13.771,102.281,2705,27160
270601,อรัญประเทศ,Aranprathet,13.680,102.517,2706,27120
270602,เมืองไผ่,Mueang Phai,13.651,102.427,2706,27120
270603,หันทราย,Han Sai,13.806,102.452,2706,27120
270604,คลองน้ำใส,Khlong Nam Sai,13.590,102.514,2706,27120
270605,ท่าข้าม,Tha Kham,13.639,102.531,2706,27120
270606,ป่าไร่,Pa Rai,13.745,102.585,2706,27120
270607,ทับพริก,Thap Phrik,13.506,102.336,2706,27120
270608,บ้านใหม่หนองไทร,Ban Mai Nong Sai,13.715,102.510,2706,27120
270609,ผ่านศึก,Phan Suek,13.592,102.432,2706,27120
270610,หนองสังข์,Nong Sang,13.804,102.539,2706,27120
270611,คลองทับจันทร์,Khlong Thap Chan,13.643,102.387,2706,27120
270612,ฟากห้วย,Fak Huai,13.646,102.480,2706,27120
270613,บ้านด่าน,Ban Dan,13.746,102.526,2706,27120
270701,เขาฉกรรจ์,Khao Chakan,13.663,102.098,2707,27000
270702,หนองหว้า,Nong Wa,13.672,102.037,2707,27000
270703,พระเพลิง,Phra Phloeng,13.596,102.042,2707,27000
270704,เขาสามสิบ,Khao Sam Sip,13.708,102.118,2707,27000
270801,โคกสูง,Khok Sung,13.831,102.719,2708,27120
270802,หนองม่วง,Nong Muang,13.874,102.582,2708,27180
270803,หนองแวง,Nong Waeng,13.866,102.674,2708,27180
270804,โนนหมากมุ่น,Non Mak Mun,13.774,102.664,2708,27120
270901,วังสมบูรณ์,Wang Sombun,13.344,102.207,2709,27250
270902,วังใหม่,Wang Mai,13.413,102.039,2709,27250
270903,วังทอง,Wang Thong,13.338,102.081,2709,27250
300102,โพธิ์กลาง,Pho Klang,14.906,102.102,3001,30000
300103,หนองจะบก,Nong Chabok,14.916,102.064,3001,30000
300104,โคกสูง,Khok Sung,15.095,102.116,3001,30310
300105,มะเริง,Maroeng,14.980,102.164,3001,30000
300106,หนองระเวียง,Nong Rawiang,14.946,102.199,3001,30000
300107,ปรุใหญ่,Pru Yai,14.994,102.052,3001,30000
300108,หมื่นไวย,Muen Wai,15.011,102.108,3001,30000
300109,พลกรัง,Phon Krang,15.026,102.011,3001,30000
300110,หนองไผ่ล้อม,Nong Phai Lom,14.947,102.085,3001,30000
300111,หัวทะเล,Hua Thale,14.965,102.140,3001,30000
300112,บ้านเกาะ,Ban Ko,14.981,102.091,3001,30000
300114,พุดซา,Phutsa,15.049,102.043,3001,30000
300115,บ้านโพธิ์,Ban Pho,15.038,102.191,3001,30310
300116,จอหอ,Cho Ho,15.055,102.148,3001,30310
300117,โคกกรวด,Khok Kruat,14.897,101.974,3001,30280
300118,ไชยมงคล,Chai Mongkhon,14.849,102.080,3001,30000
300119,หนองบัวศาลา,Nong Bua Sala,14.899,102.152,3001,30000
300120,สุรนารี,Suranari,14.915,102.037,3001,30000
300121,สีมุม,Si Mum,14.986,102.007,3001,30000
300122,ตลาด,Talat,15.018,102.154,3001,30310
300123,พะเนา,Phanao,14.986,102.189,3001,30000
300124,หนองกระทุ่ม,Nong Krathum,15.009,102.086,3001,30000
300125,หนองไข่น้ำ,Nong Khai Nam,15.105,102.174,3001,30310
300201,แชะ,Chae,14.569,102.278,3002,30250
300202,เฉลียง,Chaliang,14.489,102.279,3002,30250
300203,ครบุรี,Khon Buri,14.599,102.130,3002,30250
300204,โคกกระชาย,Khok Krachai,14.301,102.196,3002,30250
300205,จระเข้หิน,Chorakhe Hin,14.367,102.100,3002,30250
300206,มาบตะโกเอน,Map Tako En,14.570,102.385,3002,30250
300207,อรพิมพ์,Oraphim,14.569,102.207,3002,30250
300208,บ้านใหม่,Ban Mai,14.449,102.207,3002,30250
300209,ลำเพียก,Lam Phiak,14.255,102.302,3002,30250
300210,ครบุรีใต้,Khon Buri Tai,14.529,102.103,3002,30250
300211,ตะแบกบาน,Tabaek Ban,14.462,102.343,3002,30250
300212,สระว่านพระยา,Sa Wan Phraya,14.528,102.384,3002,30250
300301,เสิงสาง,Soeng Sang,14.426,102.429,3003,30330
300302,สระตะเคียน,Sa Takhian,14.325,102.552,3003,30330
300303,โนนสมบูรณ์,Non Sombun,14.278,102.398,3003,30330
300304,กุดโบสถ์,Kut Bot,14.457,102.540,3003,30330
300305,สุขไพบูลย์,Suk Phaibun,14.526,102.448,3003,30330
300306,บ้านราษฎร์,Ban Rat,14.247,102.474,3003,30330
300401,เมืองคง,Mueang Khong,15.451,102.334,3004,30260
300402,คูขาด,Khu Khat,15.445,102.407,3004,30260
300403,เทพาลัย,Thephalai,15.368,102.466,3004,30260
300404,ตาจั่น,Ta Chan,15.314,102.368,3004,30260
300405,บ้านปรางค์,Ban Prang,15.474,102.080,3004,30260
300406,หนองมะนาว,Nong Manao,15.500,102.280,3004,30260
300407,หนองบัว,Nong Bua,15.496,102.167,3004,30260
300408,โนนเต็ง,Non Teng,15.449,102.266,3004,30260
300409,ดอนใหญ่,Don Yai,15.397,102.357,3004,30260
300410,ขามสมบูรณ์,Kham Sombun,15.371,102.403,3004,30260
300501,บ้านเหลื่อม,Ban Lueam,15.625,102.136,3005,30350
300502,วังโพธิ์,Wang Pho,15.571,102.103,3005,30350
300503,โคกกระเบื้อง,Khok Krabueang,15.571,102.187,3005,30350
300504,ช่อระกา,Cho Raka,15.540,102.057,3005,30350
300601,จักราช,Chakkarat,15.027,102.432,3006,30230
300603,ทองหลาง,Thonglang,15.052,102.353,3006,30230
300604,สีสุก,Si Suk,14.874,102.385,3006,30230
300605,หนองขาม,Nong Kham,14.931,102.506,3006,30230
300607,หนองพลวง,Nong Phluang,15.070,102.424,3006,30230
300610,ศรีละกอ,Si Lako,14.938,102.427,3006,30230
300611,คลองเมือง,Khlong Mueang,14.852,102.502,3006,30230
300613,หินโคน,Hin Khon,15.013,102.498,3006,30230
300701,กระโทก,Krathok,14.714,102.189,3007,30190
300702,พลับพลา,Phlapphla,14.755,102.129,3007,30190
300703,ท่าอ่าง,Tha Ang,14.821,102.160,3007,30190
300704,ทุ่งอรุณ,Thung Arun,14.631,102.184,3007,30190
300705,ท่าลาดขาว,Tha Lat Khao,14.672,102.154,3007,30190
300706,ท่าจะหลุง,Tha Chalung,14.870,102.264,3007,30190
300707,ท่าเยี่ยม,Tha Yiam,14.716,102.237,3007,30190
300708,โชคชัย,Chok Chai,14.763,102.172,3007,30190
300709,ละลมใหม่พัฒนา,Lalom Mai Phatthana,14.811,102.243,3007,30190
300710,ด่านเกวียน,Dan Kwian,14.864,102.189,3007,30190
300801,กุดพิมาน,Kut Phiman,15.303,101.759,3008,30210
300802,ด่านขุนทด,Dan Khun Thot,15.214,101.788,3008,30210
300803,ด่านนอก,Dan Nok,15.157,101.870,3008,30210
300804,ด่านใน,Dan Nai,15.119,101.855,3008,30210
300805,ตะเคียน,Takhian,15.124,101.724,3008,30210
300806,บ้านเก่า,Ban Kao,15.211,101.673,3008,30210
300807,บ้านแปรง,Ban Praeng,15.372,101.809,3008,36220
300808,พันชนะ,Phan Chana,15.270,101.689,3008,30210
300809,สระจรเข้,Sa Chorakhe,15.147,101.808,3008,30210
300810,หนองกราด,Nong Krat,15.348,101.667,3008,30210
300811,หนองบัวตะเกียด,Nong Bua Takiat,15.281,101.821,3008,30210
300812,หนองบัวละคร,Nong Bua Lakhon,15.243,101.863,3008,30210
300813,หินดาด,Hin Dat,15.149,101.618,3008,30210
300815,ห้วยบง,Huai Bong,15.161,101.486,3008,30210
300817,โนนเมืองพัฒนา,Non Mueang Phatthana,15.304,101.897,3008,30210
300818,หนองไทร,Nong Sai,15.360,101.855,3008,36220
300901,โนนไทย,Non Thai,15.213,102.061,3009,30220
300902,ด่านจาก,Dan Chak,15.162,102.095,3009,30220
300903,กำปัง,Kampang,15.118,102.060,3009,30220
300904,สำโรง,Samrong,15.128,102.018,3009,30220
300905,ค้างพลู,Khang Phlu,15.149,101.973,3009,30220
300906,บ้านวัง,Ban Wang,15.152,101.914,3009,30220
300907,บัลลังก์,Banlang,15.223,101.928,3009,30220
300908,สายออ,Sai O,15.226,102.002,3009,30220
300909,ถนนโพธิ์,Thanon Pho,15.274,102.138,3009,30220
300914,มะค่า,Makha,15.265,102.098,3009,30220
301001,โนนสูง,Non Sung,15.179,102.256,3010,30160
301002,ใหม่,Mai,15.152,102.287,3010,30160
301003,โตนด,Tanot,15.097,102.293,3010,30160
301004,บิง,Bing,15.118,102.333,3010,30160
301005,ดอนชมพู,Don Chomphu,15.171,102.339,3010,30160
301006,ธารปราสาท,Than Prasat,15.263,102.392,3010,30420
301007,หลุมข้าว,Lum Khao,15.224,102.313,3010,30160
301008,มะค่า,Makha,15.315,102.321,3010,30160
301009,พลสงคราม,Phon Songkhram,15.299,102.273,3010,30160
301010,จันอัด,Chan-at,15.161,102.158,3010,30160
301011,ขามเฒ่า,Kham Thao,15.305,102.219,3010,30160
301012,ด่านคล้า,Dan Khla,15.152,102.212,3010,30160
301013,ลำคอหงษ์,Lam Kho Hong,15.252,102.210,3010,30160
301014,เมืองปราสาท,Mueang Prasat,15.201,102.194,3010,30160
301015,ดอนหวาย,Don Wai,15.116,102.287,3010,30160
301016,ลำมูล,Lam Mun,15.072,102.308,3010,30160
301101,ขามสะแกแสง,Kham Sakaesaeng,15.360,102.195,3011,30290
301102,โนนเมือง,Non Mueang,15.416,102.116,3011,30290
301103,เมืองนาท,Mueang Nat,15.386,102.248,3011,30290
301104,ชีวึก,Chiwuek,15.351,102.099,3011,30290
301105,พะงาด,Pha-ngat,15.334,102.149,3011,30290
301106,หนองหัวฟาน,Nong Hua Fan,15.433,102.237,3011,30290
301107,เมืองเกษตร,Mueang Kaset,15.424,102.159,3011,30290
301201,บัวใหญ่,Bua Yai,15.602,102.438,3012,30120
301203,ห้วยยาง,Huai Yang,15.626,102.363,3012,30120
301204,เสมาใหญ่,Sema Yai,15.516,102.429,3012,30120
301206,ดอนตะหนิน,Don Tanin,15.486,102.466,3012,30120
301207,หนองบัวสะอาด,Nong Bua Sa-at,15.593,102.300,3012,30120
301208,โนนทองหลาง,Non Thonglang,15.522,102.374,3012,30120
301214,กุดจอก,Kut Chok,15.571,102.502,3012,30120
301215,ด่านช้าง,Dan Chang,15.623,102.407,3012,30120
301220,ขุนทอง,Khun Thong,15.683,102.364,3012,30120
301224,หนองแจ้งใหญ่,Nong Chaeng Yai,15.567,102.372,3012,30120
301301,ประทาย,Prathai,15.536,102.724,3013,30180
301303,กระทุ่มราย,Krathum Rai,15.530,102.659,3013,30180
301304,วังไม้แดง,Wang Mai Daeng,15.684,102.632,3013,30180
301306,ตลาดไทร,Talat Sai,15.528,102.780,3013,30180
301307,หนองพลวง,Nong Phluang,15.583,102.707,3013,30180
301308,หนองค่าย,Nong Khai,15.596,102.759,3013,30180
301309,หันห้วยทราย,Han Huai Sai,15.611,102.656,3013,30180
301310,ดอนมัน,Don Man,15.491,102.822,3013,30180
301313,นางรำ,Nang Ram,15.484,102.623,3013,30180
301314,โนนเพ็ด,Non Phet,15.677,102.684,3013,30180
301315,ทุ่งสว่าง,Thung Sawang,15.493,102.686,3013,30180
301317,โคกกลาง,Khok Klang,15.463,102.737,3013,30180
301318,เมืองโดน,Mueang Don,15.635,102.712,3013,30180
301401,เมืองปัก,Mueang Pak,14.719,102.055,3014,30150
301402,ตะคุ,Takhu,14.754,101.953,3014,30150
301403,โคกไทย,Khok Thai,14.741,102.090,3014,30150
301404,สำโรง,Samrong,14.650,102.063,3014,30150
301405,ตะขบ,Takhop,14.686,101.745,3014,30150
301406,นกออก,Nok Ok,14.686,102.036,3014,30150
301407,ดอน,Don,14.679,102.108,3014,30150
301409,ตูม,Tum,14.701,101.986,3014,30150
301410,งิ้ว,Ngio,14.666,101.997,3014,30150
301411,สะแกราช,Sakae Rat,14.604,102.048,3014,30150
301412,ลำนางแก้ว,Lam Nang Kaeo,14.563,101.870,3014,30150
301416,ภูหลวง,Phu Luang,14.602,101.984,3014,30150
301417,ธงชัยเหนือ,Thong Chai Nuea,14.793,102.034,3014,30150
301418,สุขเกษม,Suk Kasem,14.667,101.939,3014,30150
301419,เกษมทรัพย์,Kasem Sap,14.663,102.046,3014,30150
301420,บ่อปลาทอง,Bo Pla Thong,14.637,101.902,3014,30150
301501,ในเมือง,Nai Mueang,15.206,102.489,3015,30110
301502,สัมฤทธิ์,Samrit,15.216,102.424,3015,30110
301503,โบสถ์,Bot,15.215,102.628,3015,30110
301504,กระเบื้องใหญ่,Krabueang Yai,15.271,102.458,3015,30110
301505,ท่าหลวง,Tha Luang,15.282,102.547,3015,30110
301506,รังกาใหญ่,Rang Ka Yai,15.190,102.555,3015,30110
301507,ชีวาน,Chiwan,15.344,102.540,3015,30110
301508,นิคมสร้างตนเอง,Nikhom Sang Ton-eng,15.128,102.490,3015,30110
301509,กระชอน,Krachon,15.443,102.670,3015,30110
301510,ดงใหญ่,Dong Yai,15.338,102.591,3015,30110
301511,ธารละหลอด,Than Lalot,15.162,102.403,3015,30110
301512,หนองระเวียง,Nong Rawiang,15.113,102.440,3015,30110
301601,ห้วยแถลง,Huai Thalaeng,14.967,102.652,3016,30240
301602,ทับสวาย,Thap Sawai,15.021,102.634,3016,30240
301603,เมืองพลับพลา,Mueang Phlapphla,15.063,102.634,3016,30240
301604,หลุ่งตะเคียน,Lung Takhian,15.120,102.638,3016,30240
301605,หินดาด,Hin Dat,14.995,102.565,3016,30240
301606,งิ้ว,Ngio,15.077,102.689,3016,30240
301607,กงรถ,Kong Rot,15.047,102.752,3016,30240
301608,หลุ่งประดู่,Lung Pradu,15.060,102.582,3016,30240
301609,ตะโก,Tako,15.019,102.718,3016,30240
301610,ห้วยแคน,Huai Khaen,14.985,102.687,3016,30240
301701,ชุมพวง,Chum Phuang,15.344,102.750,3017,30270
301702,ประสุข,Prasuk,15.342,102.685,3017,30270
301703,ท่าลาด,Tha Lat,15.243,102.720,3017,30270
301704,สาหร่าย,Sarai,15.184,102.735,3017,30270
301705,ตลาดไทร,Talat Sai,15.109,102.773,3017,30270
301710,โนนรัง,Non Rang,15.258,102.810,3017,30270
301714,หนองหลัก,Nong Lak,15.411,102.732,3017,30270
301716,โนนตูม,Non Tum,15.167,102.769,3017,30270
301717,โนนยอ,Non Yo,15.339,102.828,3017,30270
301801,สูงเนิน,Sung Noen,14.861,101.842,3018,30170
301802,เสมา,Sema,14.982,101.777,3018,30170
301803,โคราช,Khorat,14.909,101.851,3018,30170
301804,บุ่งขี้เหล็ก,Bung Khilek,14.952,101.839,3018,30170
301805,โนนค่า,Non Kha,15.034,101.840,3018,30170
301806,โค้งยาง,Khong Yang,14.922,101.903,3018,30170
301807,มะเกลือเก่า,Makluea Kao,14.779,101.805,3018,30170
301808,มะเกลือใหม่,Makluea Mai,14.798,101.728,3018,30170
301809,นากลาง,Na Klang,14.855,101.942,3018,30380
301810,หนองตะไก้,Nong Takai,14.790,101.895,3018,30380
301901,ขามทะเลสอ,Kham Thale So,14.974,101.959,3019,30280
301902,โป่งแดง,Pong Daeng,14.970,101.916,3019,30280
301903,พันดุง,Phan Dung,15.069,101.952,3019,30280
301904,หนองสรวง,Nong Suang,15.086,101.894,3019,30280
301905,บึงอ้อ,Bueng O,15.028,101.932,3019,30280
302001,สีคิ้ว,Sikhio,14.905,101.687,3020,30140
302002,บ้านหัน,Ban Han,14.985,101.750,3020,30140
302003,กฤษณา,Kritsana,15.046,101.556,3020,30140
302004,ลาดบัวขาว,Lat Bua Khao,14.823,101.629,3020,30340
302005,หนองหญ้าขาว,Nong Ya Khao,14.959,101.574,3020,30140
302006,กุดน้อย,Kut Noi,14.931,101.753,3020,30140
302007,หนองน้ำใส,Nong Nam Sai,14.932,101.485,3020,30140
302008,วังโรงใหญ่,Wang Rong Yai,15.045,101.659,3020,30140
302009,มิตรภาพ,Mittraphap,14.797,101.685,3020,30140
302010,คลองไผ่,Khlong Phai,14.883,101.515,3020,30340
302011,ดอนเมือง,Don Mueang,15.020,101.456,3020,30140
302012,หนองบัวน้อย,Nong Bua Noi,15.047,101.760,3020,30140
302101,ปากช่อง,Pak Chong,14.722,101.363,3021,30130
302102,กลางดง,Klang Dong,14.650,101.283,3021,30320
302103,จันทึก,Chanthuek,14.806,101.456,3021,30130
302104,วังกะทะ,Wang Katha,14.536,101.640,3021,30130
302105,หมูสี,Mu Si,14.501,101.402,3021,30130
302106,หนองสาหร่าย,Nong Sarai,14.689,101.488,3021,30130
302107,ขนงพระ,Khanong Phra,14.594,101.530,3021,30130
302108,โป่งตาลอง,Pong Talong,14.472,101.605,3021,30130
302109,คลองม่วง,Khlong Muang,14.647,101.649,3021,30130
302110,หนองน้ำแดง,Nong Nam Daeng,14.613,101.398,3021,30130
302111,วังไทร,Wang Sai,14.706,101.573,3021,30130
302112,พญาเย็น,Phaya Yen,14.548,101.246,3021,30320
302201,หนองบุนนาก,Nong Bunnak,14.609,102.400,3022,30410
302202,สารภี,Saraphi,14.814,102.417,3022,30410
302203,ไทยเจริญ,Thai Charoen,14.743,102.450,3022,30410
302204,หนองหัวแรต,Nong Hua Raet,14.715,102.332,3022,30410
302205,แหลมทอง,Laem Thong,14.780,102.304,3022,30410
302206,หนองตะไก้,Nong Takai,14.654,102.397,3022,30410
302207,ลุงเขว้า,Lung Khwao,14.813,102.339,3022,30410
302208,หนองไม้ไผ่,Nong Mai Phai,14.641,102.320,3022,30410
302209,บ้านใหม่,Ban Mai,14.754,102.398,3022,30410
302301,แก้งสนามนาง,Kaeng Sanam Nang,15.727,102.277,3023,30440
302302,โนนสำราญ,Non Samran,15.750,102.325,3023,30440
302303,บึงพะไล,Bueng Phalai,15.661,102.236,3023,30440
302304,สีสุก,Si Suk,15.640,102.175,3023,30440
302305,บึงสำโรง,Bueng Samrong,15.715,102.198,3023,30440
302402,โนนตาเถร,Non Ta Then,15.435,102.488,3024,30360
302403,สำพะเนียง,Samphaniang,15.452,102.568,3024,30360
302404,วังหิน,Wang Hin,15.505,102.567,3024,30360
302405,ดอนยาวใหญ่,Don Yao Yai,15.410,102.536,3024,30360
302501,วังน้ำเขียว,Wang Nam Khiao,14.399,101.817,3025,30370
302502,วังหมี,Wang Mi,14.474,101.769,3025,30370
302503,ระเริง,Raroeng,14.574,101.731,3025,30150
302504,อุดมทรัพย์,Udom Sap,14.490,101.969,3025,30370
302505,ไทยสามัคคี,Thai Samakkhi,14.353,101.966,3025,30370
302601,สำนักตะคร้อ,Samnak Takhro,15.297,101.564,3026,30210
302602,หนองแวง,Nong Waeng,15.256,101.436,3026,30210
302603,บึงปรือ,Bueng Prue,15.303,101.411,3026,30210
302604,วังยายทอง,Wang Yai Thong,15.349,101.518,3026,30210
302701,เมืองยาง,Mueang Yang,15.418,102.886,3027,30270
302702,กระเบื้องนอก,Krabueang Nok,15.440,102.957,3027,30270
302703,ละหานปลาค้าว,Lahan Pla Khao,15.487,102.889,3027,30270
302704,โนนอุดม,Non Udom,15.426,102.812,3027,30270
302801,สระพระ,Sa Phra,15.311,101.959,3028,30220
302802,มาบกราด,Map Krat,15.369,101.926,3028,30220
302803,พังเทียม,Phang Thiam,15.275,101.995,3028,30220
302804,ทัพรั้ง,Thap Rang,15.406,101.976,3028,30220
302805,หนองหอย,Nong Hoi,15.334,102.056,3028,30220
302901,ขุย,Khui,15.353,102.866,3029,30270
302902,บ้านยาง,Ban Yang,15.250,102.944,3029,30270
302903,ช่องแมว,Chong Maeo,15.276,102.874,3029,30270
302904,ไพล,Phlai,15.360,102.971,3029,30270
303001,เมืองพะไล,Mueang Phalai,15.649,102.532,3030,30120
303002,โนนจาน,Non Chan,15.699,102.472,3030,30120
303003,บัวลาย,Bua Lai,15.661,102.468,3030,30120
303004,หนองหว้า,Nong Wa,15.667,102.573,3030,30120
303101,สีดา,Sida,15.564,102.588,3031,30430
303102,โพนทอง,Phon Thong,15.540,102.590,3031,30430
303103,โนนประดู่,Non Pradu,15.521,102.479,3031,30430
303104,สามเมือง,Sam Mueang,15.591,102.537,3031,30430
303105,หนองตาดใหญ่,Nong Tat Yai,15.617,102.591,3031,30430
303201,ช้างทอง,Chang Thong,15.029,102.310,3032,30230
303202,ท่าช้าง,Tha Chang,14.981,102.323,3032,30230
303203,พระพุทธ,Phra Phut,14.975,102.232,3032,30230
303204,หนองงูเหลือม,Nong Ngu Lueam,15.053,102.234,3032,30000
303205,หนองยาง,Nong Yang,14.930,102.287,3032,30230
310101,ในเมือง,Nai Mueang,14.999,103.104,3101,31000
310102,อิสาณ,Isan,14.979,103.128,3101,31000
310103,เสม็ด,Samet,14.941,103.098,3101,31000
310104,บ้านบัว,Ban Bua,14.949,102.997,3101,31000
310105,สะแกโพรง,Sakae Phrong,14.853,102.942,3101,31000
310106,สวายจึก,Sawai Chik,14.896,103.146,3101,31000
310108,บ้านยาง,Ban Yang,15.018,103.156,3101,31000
310112,พระครู,Phra Khru,15.099,103.018,3101,31000
310113,ถลุงเหล็ก,Thalung Lek,15.116,103.078,3101,31000
310114,หนองตาด,Nong Tat,15.031,103.024,3101,31000
310117,ลุมปุ๊ก,Lumpuk,14.908,102.951,3101,31000
310118,สองห้อง,Song Hong,14.808,102.953,3101,31000
310119,บัวทอง,Bua Thong,15.058,103.136,3101,31000
310120,ชุมเห็ด,Chum Het,15.033,103.093,3101,31000
310122,หลักเขต,Lak Khet,14.824,103.159,3101,31000
310125,สะแกซำ,Sakae Sam,14.871,103.099,3101,31000
310126,กลันทา,Kalantha,15.095,103.109,3101,31000
310127,กระสัง,Krasang,14.974,103.047,3101,31000
310128,เมืองฝาง,Mueang Fang,14.782,102.982,3101,31000
310201,คูเมือง,Khu Mueang,15.240,103.000,3102,31190
310202,ปะเคียบ,Pakhiap,15.391,103.054,3102,31190
310203,บ้านแพ,Ban Phae,15.388,103.008,3102,31190
310204,พรสำราญ,Phon Samran,15.169,103.027,3102,31190
310205,หินเหล็กไฟ,Hin Lek Fai,15.157,103.064,3102,31190
310206,ตูมใหญ่,Tum Yai,15.165,103.137,3102,31190
310207,หนองขมาร,Nong Khaman,15.314,102.995,3102,31190
310301,กระสัง,Krasang,14.922,103.296,3103,31160
310302,ลำดวน,Lamduan,15.061,103.403,3103,31160
310303,สองชั้น,Song Chan,14.887,103.224,3103,31160
310304,สูงเนิน,Sung Noen,14.820,103.239,3103,31160
310305,หนองเต็ง,Nong Teng,14.905,103.374,3103,31160
310306,เมืองไผ่,Mueang Phai,14.994,103.292,3103,31160
310307,ชุมแสง,Chum Saeng,14.984,103.395,3103,31160
310308,บ้านปรือ,Ban Prue,14.848,103.299,3103,31160
310309,ห้วยสำราญ,Huai Samran,15.072,103.336,3103,31160
310310,กันทรารมย์,Kanthararom,14.966,103.340,3103,31160
310311,ศรีภูมิ,Si Phum,15.027,103.338,3103,31160
310401,นางรอง,Nang Rong,14.673,102.806,3104,31110
310403,สะเดา,Sadao,14.577,102.770,3104,31110
310405,ชุมแสง,Chum Saeng,14.561,102.666,3104,31110
310406,หนองโบสถ์,Nong Bot,14.612,102.691,3104,31110
310408,หนองกง,Nong Kong,14.674,102.896,3104,31110
310413,ถนนหัก,Thanon Hak,14.616,102.833,3104,31110
310414,หนองไทร,Nong Sai,14.499,102.757,3104,31110
310415,ก้านเหลือง,Kan Lueang,14.730,102.711,3104,31110
310416,บ้านสิงห์,Ban Sing,14.735,102.789,3104,31110
310417,ลำไทรโยง,Lam Sai Yong,14.665,102.735,3104,31110
310418,ทรัพย์พระยา,Sap Phraya,14.516,102.662,3104,31110
310424,หนองยายพิมพ์,Nong Yai Phim,14.690,102.863,3104,31110
310425,หัวถนน,Hua Thanon,14.661,102.648,3104,31110
310426,ทุ่งแสงทอง,Thung Saeng Thong,14.581,102.705,3104,31110
310427,หนองโสน,Nong Sano,14.737,102.934,3104,31110
310501,หนองกี่,Nong Ki,14.669,102.571,3105,31210
310502,เย้ยปราสาท,Yoei Prasat,14.739,102.564,3105,31210
310503,เมืองไผ่,Mueang Phai,14.774,102.645,3105,31210
310504,ดอนอะราง,Don Arang,14.642,102.571,3105,31210
310505,โคกสว่าง,Khok Sawang,14.782,102.489,3105,31210
310506,ทุ่งกระตาดพัฒนา,Thung Kratat Phatthana,14.674,102.497,3105,31210
310507,ทุ่งกระเต็น,Thung Kraten,14.693,102.564,3105,31210
310508,ท่าโพธิ์ชัย,Tha Pho Chai,14.736,102.635,3105,31210
310509,โคกสูง,Khok Sung,14.806,102.562,3105,31210
310510,บุกระสัง,Bu Krasang,14.724,102.501,3105,31210
310601,ละหานทราย,Lahan Sai,14.418,102.854,3106,31170
310603,ตาจง,Ta Chong,14.439,102.920,3106,31170
310604,สำโรงใหม่,Samrong Mai,14.284,102.850,3106,31170
310607,หนองแวง,Nong Waeng,14.268,102.935,3106,31170
310610,หนองตระครอง,Nong Trakhrong,14.393,102.787,3106,31170
310611,โคกว่าน,Khok Wan,14.449,102.784,3106,31170
310701,ประโคนชัย,Prakhon Chai,14.613,103.081,3107,31140
310702,แสลงโทน,Salaeng Thon,14.787,103.055,3107,31140
310703,บ้านไทร,Ban Sai,14.705,103.065,3107,31140
310705,ละเวี้ย,Lawia,14.599,103.191,3107,31140
310706,จรเข้มาก,Chorakhe Mak,14.500,102.989,3107,31140
310707,ปังกู,Pang Ku,14.537,103.067,3107,31140
310708,โคกย่าง,Khok Yang,14.562,103.005,3107,31140
310710,โคกม้า,Khok Ma,14.641,103.035,3107,31140
310713,ไพศาล,Phaisan,14.662,103.208,3107,31140
310714,ตะโกตาพิ,Tako Taphi,14.638,102.981,3107,31140
310715,เขาคอก,Khao Khok,14.440,103.004,3107,31140
310716,หนองบอน,Nong Bon,14.542,103.143,3107,31140
310718,โคกมะขาม,Khok Makham,14.602,103.129,3107,31140
310719,โคกตูม,Khok Tum,14.702,102.989,3107,31140
310720,ประทัดบุ,Prathat Bu,14.569,102.962,3107,31140
310721,สี่เหลี่ยม,Si Liam,14.750,103.003,3107,31140
310801,บ้านกรวด,Ban Kruat,14.429,103.077,3108,31180
310802,โนนเจริญ,Non Charoen,14.464,103.189,3108,31180
310803,หนองไม้งาม,Nong Mai Ngam,14.344,102.997,3108,31180
310804,ปราสาท,Prasat,14.362,103.109,3108,31180
310805,สายตะกู,Sai Taku,14.397,103.211,3108,31180
310806,หินลาด,Hin Lat,14.473,103.143,3108,31180
310807,บึงเจริญ,Bueng Charoen,14.337,103.037,3108,31180
310808,จันทบเพชร,Chanthop Phet,14.384,103.164,3108,31180
310809,เขาดินเหนือ,Khao Din Nuea,14.524,103.199,3108,31180
310901,พุทไธสง,Phutthaisong,15.582,103.014,3109,31120
310902,มะเฟือง,Mafueang,15.497,103.032,3109,31120
310903,บ้านจาน,Ban Chan,15.507,102.983,3109,31120
310906,บ้านเป้า,Ban Pao,15.627,102.892,3109,31120
310907,บ้านแวง,Ban Waeng,15.580,102.959,3109,31120
310909,บ้านยาง,Ban Yang,15.463,103.097,3109,31120
310910,หายโศก,Hai Sok,15.526,102.937,3109,31120
311001,ลำปลายมาศ,Lam Plai Mat,15.019,102.834,3110,31130
311002,หนองคู,Nong Khu,14.999,102.803,3110,31130
311003,แสลงพัน,Salaeng Phan,14.990,102.957,3110,31130
311004,ทะเมนชัย,Thamen Chai,15.051,102.945,3110,31130
311005,ตลาดโพธิ์,Talat Pho,15.083,102.893,3110,31130
311006,หนองกระทิง,Nong Kathing,14.974,102.760,3110,31130
311007,โคกกลาง,Khok Klang,14.949,102.862,3110,31130
311008,โคกสะอาด,Khok Sa-at,15.154,102.902,3110,31130
311009,เมืองแฝก,Mueang Faek,15.154,102.973,3110,31130
311010,บ้านยาง,Ban Yang,14.873,102.886,3110,31130
311011,ผไทรินทร์,Phathairin,14.917,102.777,3110,31130
311012,โคกล่าม,Khok Lam,15.114,102.839,3110,31130
311013,หินโคน,Hin Khon,15.057,102.820,3110,31130
311014,หนองบัวโคก,Nong Bua Khok,15.006,102.889,3110,31130
311015,บุโพธิ์,Bu Pho,15.109,102.938,3110,31130
311016,หนองโดน,Nong Don,14.882,102.824,3110,31130
311101,สตึก,Satuek,15.263,103.301,3111,31150
311102,นิคม,Nikhom,15.274,103.225,3111,31150
311103,ทุ่งวัง,Thung Wang,15.259,103.386,3111,31150
311104,เมืองแก,Mueang Kae,15.190,103.308,3111,31150
311105,หนองใหญ่,Nong Yai,15.131,103.291,3111,31150
311106,ร่อนทอง,Ron Thong,15.200,103.244,3111,31150
311109,ดอนมนต์,Don Mon,15.209,103.183,3111,31150
311110,ชุมแสง,Chum Saeng,15.137,103.377,3111,31150
311111,ท่าม่วง,Tha Muang,15.300,103.442,3111,31150
311112,สะแก,Sakae,15.300,103.354,3111,31150
311114,สนามชัย,Sanam Chai,15.207,103.356,3111,31150
311115,กระสัง,Krasang,15.195,103.405,3111,31150
311201,ปะคำ,Pakham,14.454,102.721,3112,31220
311202,ไทยเจริญ,Thai Charoen,14.461,102.683,3112,31220
311203,หนองบัว,Nong Bua,14.432,102.657,3112,31220
311204,โคกมะม่วง,Khok Mamuang,14.402,102.612,3112,31220
311205,หูทำนบ,Hu Thamnop,14.364,102.696,3112,31220
311301,นาโพธิ์,Na Pho,15.635,102.944,3113,31230
311302,บ้านคู,Ban Khu,15.712,102.933,3113,31230
311303,บ้านดู่,Ban Du,15.713,102.977,3113,31230
311304,ดอนกอก,Don Kok,15.763,102.895,3113,31230
311305,ศรีสว่าง,Si Sawang,15.673,102.934,3113,31230
311401,สระแก้ว,Sa Kaeo,14.828,102.681,3114,31240
311402,ห้วยหิน,Huai Hin,14.871,102.594,3114,31240
311403,ไทยสามัคคี,Thai Samakkhi,14.885,102.763,3114,31240
311404,หนองชัยศรี,Nong Chai Si,14.823,102.645,3114,31240
311405,เสาเดียว,Sao Diao,14.911,102.609,3114,31240
311406,เมืองฝ้าย,Mueang Fai,14.843,102.741,3114,31240
311407,สระทอง,Sa Thong,14.889,102.670,3114,31240
311501,จันดุม,Chan Dum,14.678,103.118,3115,31250
311502,โคกขมิ้น,Khok Khamin,14.769,103.193,3115,31250
311503,ป่าชัน,Pa Chan,14.717,103.241,3115,31250
311504,สะเดา,Sadao,14.722,103.168,3115,31250
311505,สำโรง,Samrong,14.776,103.111,3115,31250
311601,ห้วยราช,Huai Rat,14.964,103.183,3116,31000
311602,สามแวง,Sam Waeng,15.009,103.192,3116,31000
311603,ตาเสา,Ta Sao,15.088,103.285,3116,31000
311604,บ้านตะโก,Ban Tako,14.969,103.233,3116,31000
311605,สนวน,Sanuan,14.933,103.182,3116,31000
311606,โคกเหล็ก,Khok Lek,15.023,103.230,3116,31000
311607,เมืองโพธิ์,Mueang Pho,15.042,103.268,3116,31000
311608,ห้วยราชา,Huai Racha,14.982,103.203,3116,31000
311701,โนนสุวรรณ,Non Suwan,14.538,102.604,3117,31110
311702,ทุ่งจังหัน,Thung Changhan,14.566,102.558,3117,31110
311703,โกรกแก้ว,Krok Kaeo,14.621,102.637,3117,31110
311704,ดงอีจาน,Dong I Chan,14.546,102.517,3117,31110
311801,ชำนิ,Chamni,14.785,102.810,3118,31110
311802,หนองปล่อง,Nong Plong,14.743,102.844,3118,31110
311803,เมืองยาง,Mueang Yang,14.794,102.906,3118,31110
311804,ช่อผกา,Cho Phaka,14.809,102.787,3118,31110
311805,ละลวด,Laluat,14.780,102.745,3118,31110
311806,โคกสนวน,Khok Sanuan,14.755,102.888,3118,31110
311901,หนองแวง,Nong Waeng,15.553,102.907,3119,31120
311902,ทองหลาง,Thonglang,15.608,102.805,3119,31120
311903,แดงใหญ่,Daeng Yai,15.605,102.857,3119,31120
311904,กู่สวนแตง,Ku Suan Taeng,15.534,102.860,3119,31120
311905,หนองเยือง,Nong Yueang,15.555,102.811,3119,31120
312001,โนนดินแดง,Non Din Daeng,14.316,102.721,3120,31260
312002,ส้มป่อย,Som Poi,14.346,102.764,3120,31260
312003,ลำนางรอง,Lam Nang Rong,14.213,102.698,3120,31260
312101,บ้านด่าน,Ban Dan,15.112,103.162,3121,31000
312102,ปราสาท,Prasat,15.081,103.217,3121,31000
312103,วังเหนือ,Wang Nuea,15.138,103.219,3121,31000
312104,โนนขวาง,Non Khwang,15.191,103.157,3121,31000
312201,แคนดง,Khaen Dong,15.317,103.123,3122,31150
312202,ดงพลอง,Dong Phlong,15.321,103.172,3122,31150
